[
  {
    "Continent": "UAE",
    "Country": "Abudhabi & Alain",
    "State": "UAE",
    "City": "ABUDHABI",
    "Name": "Abudhabi - Ladies Centre",
    "CenterNumber": "unknown",
    "long": "54.3618901",
    "lat": "24.4888",
    "Address": "HAMDAN STREET"
  },
  {
    "Continent": "UAE",
    "Country": "Abudhabi & Alain",
    "State": "UAE",
    "City": "ABUDHABI",
    "Name": "Abudhabi - SKY Centre",
    "CenterNumber": "unknown",
    "long": "54.36198881",
    "lat": "24.4888",
    "Address": "HAMDAN STREET"
  },
  {
    "Continent": "UAE",
    "Country": "Abudhabi & Alain",
    "State": "UAE",
    "City": "ABUDHABI",
    "Name": "Al-Ain Abudhabi Sub centre",
    "CenterNumber": "unknown",
    "long": "0",
    "lat": "0",
    "Address": "AL AIN"
  },
  {
    "Continent": "UAE",
    "Country": "Abudhabi & Alain",
    "State": "UAE",
    "City": "ABUDHABI",
    "Name": "Musaffah, Abudhabi Sub Centre",
    "CenterNumber": "unknown",
    "long": "54.5341328",
    "lat": "24.3342506",
    "Address": "ME10  MUSAFFAH, ABUDHABI"
  },
  {
    "Continent": "UAE",
    "Country": "Abudhabi & Alain",
    "State": "UAE",
    "City": "ABUDHABI",
    "Name": "SKY Yoga Club -Abudhabi",
    "CenterNumber": "unknown",
    "long": "54.3767821",
    "lat": "24.4989668",
    "Address": ""
  },
  {
    "Continent": "Australia",
    "Country": "Australia",
    "State": "NEW SOUTH WALES",
    "City": "HOMEBUSH",
    "Name": "Vethathiri Yoga Centre, New South Wales",
    "CenterNumber": "unknown",
    "long": "151.0793169",
    "lat": "-33.8712438",
    "Address": "Meredith Uniting Church, 51 Meredith At Homebush NSW 2020"
  },
  {
    "Continent": "Australia",
    "Country": "Australia",
    "State": "PERTH",
    "City": "HUNTINGDALE",
    "Name": "Perth SKY Meditation Centre, Western Australia",
    "CenterNumber": "unknown",
    "long": "115.9703964",
    "lat": "-32.0846376",
    "Address": "11 Roscommon Vista,Huntingdale, WA 6110"
  },
  {
    "Continent": "Australia",
    "Country": "Australia",
    "State": "VICTORIA",
    "City": "ADELAIDE - MAGILL",
    "Name": "Adelaide SKY Yoga (Victoria SKY Sub Centre)",
    "CenterNumber": "unknown",
    "long": "0",
    "lat": "0",
    "Address": "33 Eton Avenue, Magill, SA-5072"
  },
  {
    "Continent": "Australia",
    "Country": "Australia",
    "State": "VICTORIA",
    "City": "CARRUM DOWN",
    "Name": "Victoria SKY Meditation Society",
    "CenterNumber": "unknown",
    "long": "145.1769623",
    "lat": "-38.0840915",
    "Address": "Meditation Hall, Cultural and Heritage Centre (Siva-Vishnu Temple) 52 Boundary Road, Carrum Down, Vic 3201"
  },
  {
    "Continent": "Australia",
    "Country": "Australia",
    "State": "VICTORIA",
    "City": "CLARINDA",
    "Name": "Melaleuca Community Centre (Victoria SKY Sub Centre)",
    "CenterNumber": "unknown",
    "long": "0",
    "lat": "0",
    "Address": "Melaleuca activity hub, 31 Melaleuca Drive,Clarinda,Vic 3169"
  },
  {
    "Continent": "Austria",
    "Country": "Austria",
    "State": "Vorarlberg",
    "City": "VORARLBERG",
    "Name": "Simplified Kundalini Yoga - Austria",
    "CenterNumber": "unknown",
    "long": "9.707519",
    "lat": "47.1869166",
    "Address": "Thomas Stockinger Bahnhofstrasse 25 6710 \\r\\nNenzing/Vorarlberg 6710 Nenzing/Vorarlberg"
  },
  {
    "Continent": "Bahrain",
    "Country": "Bahrain",
    "State": "Bahrain",
    "City": "MANAMA",
    "Name": "Bahrain SKY Centre",
    "CenterNumber": "unknown",
    "long": "50.5577",
    "lat": "26.0667",
    "Address": "Bahrain"
  },
  {
    "Continent": "Cambodia",
    "Country": "Cambodia",
    "State": "Cambodia",
    "City": "CAMBODIA",
    "Name": "Cambodia SKY Centre",
    "CenterNumber": "unknown",
    "long": "104.910246",
    "lat": "11.553915",
    "Address": "Phnom Penh, Near Olympic Market, Cambodia"
  },
  {
    "Continent": "Canada",
    "Country": "Canada",
    "State": "Canada",
    "City": "TORONTO",
    "Name": "SKY Yoga Centre - Toronto Canada",
    "CenterNumber": "unknown",
    "long": "-79.2517088",
    "lat": "43.8198607",
    "Address": "Middlefield Sai Centre 80-F Nashdene Road, \\r\\nUnit 130 Scarborough, ON M1V 5E4 Canada."
  },
  {
    "Continent": "Canada",
    "Country": "Canada",
    "State": "Canada",
    "City": "TORONTO - WEST",
    "Name": "SKY Yoga -Toronto West",
    "CenterNumber": "unknown",
    "long": "-79.5898171",
    "lat": "43.6788794",
    "Address": "40 Voyager court North Etobikoke ,ON M9W 4Y3 Toronto Canada"
  },
  {
    "Continent": "DenMark",
    "Country": "DenMark",
    "State": "Denmark",
    "City": "VILDBJERG",
    "Name": "SKY Denmark",
    "CenterNumber": "unknown",
    "long": "8.7589176",
    "lat": "56.191186",
    "Address": "Agards VEJ 18, 7480 Vildbjerg, Denmark."
  },
  {
    "Continent": "UAE",
    "Country": "Dubai & Sharjah",
    "State": "DUBAI",
    "City": "AL NAHADA",
    "Name": "Dubai - Al Nahda (Ladies)",
    "CenterNumber": "unknown",
    "long": "55.3838742",
    "lat": "25.29138",
    "Address": "FLAT-215 , AL ABBAR BUILDING , NEAR ZULEKHA HOSPITAL, DUBAI."
  },
  {
    "Continent": "UAE",
    "Country": "Dubai & Sharjah",
    "State": "DUBAI",
    "City": "DUBAI - DIP",
    "Name": "Dubai  Dubai Investment Park, Green Community - East",
    "CenterNumber": "unknown",
    "long": "0",
    "lat": "0",
    "Address": "PARTY HALL  SWIMMING POOL 05 , GREEN COMMUNITY EAST, \\r\\nNEAR NMC HOSPITAL"
  },
  {
    "Continent": "UAE",
    "Country": "Dubai & Sharjah",
    "State": "DUBAI",
    "City": "DISCOVERY GARDENS",
    "Name": "Dubai - Discovery Gardens",
    "CenterNumber": "unknown",
    "long": "55.1303477",
    "lat": "25.0473848",
    "Address": "FLAT-117, ZEN CLUSTER BUILDING-09, \\r\\nASTER CLINIC BUILDING, DUBAI"
  },
  {
    "Continent": "UAE",
    "Country": "Dubai & Sharjah",
    "State": "DUBAI",
    "City": "DISCOVERY GARDENS",
    "Name": "Dubai-Discovery Gardens(ladies)",
    "CenterNumber": "unknown",
    "long": "55.1301762",
    "lat": "25.0476683",
    "Address": "LADIES- DUBAI - DISCOVERY GARDENS FLAT-318 , ZEN CLUSTER ,\\r\\n BUILDING 10, ASTER SPECIALITY CLINIC BUILDING, DUBAI"
  },
  {
    "Continent": "UAE",
    "Country": "Dubai & Sharjah",
    "State": "DUBAI",
    "City": "KARAMA",
    "Name": "Dubai - Karama",
    "CenterNumber": "unknown",
    "long": "0",
    "lat": "0",
    "Address": "GOLDEN FALCON KARATE CENTRE, MEZANNINE FLOOR , \\r\\nAL ADIL SUPERMARKET BUILDING"
  },
  {
    "Continent": "UAE",
    "Country": "Dubai & Sharjah",
    "State": "DUBAI",
    "City": "KARAMA",
    "Name": "Dubai-Karama(ladies)",
    "CenterNumber": "unknown",
    "long": "55.2707828",
    "lat": "25.2048493",
    "Address": "FLAT - 404 , KARAMA 4 BUILDING (GOLDEN STAR KARATE ), \\r\\nNEAR LULU HYPER MARKET , BEHIND KALYAN SILKS, DUBAI"
  },
  {
    "Continent": "UAE",
    "Country": "Dubai & Sharjah",
    "State": "DUBAI",
    "City": "MUHAISNAH",
    "Name": "Dubai - Muhaisnah (Ladies)",
    "CenterNumber": "unknown",
    "long": "55.28719342",
    "lat": "25.2522194",
    "Address": "FLAT-409 , DROOR 2 RESIDENCY- JAMAL BUILDING, \\r\\nNEAR MADINA MALL, DUBAI"
  },
  {
    "Continent": "UAE",
    "Country": "Dubai & Sharjah",
    "State": "DUBAI",
    "City": "MUHAISNAH",
    "Name": "Dubai - Muhaisnah",
    "CenterNumber": "unknown",
    "long": "55.2870941",
    "lat": "25.2522194",
    "Address": "FLAT-409 , DROOR 2 RESIDENCY- JAMAL BUILDING,\\r\\n NEAR MADINA MALL, DUBAI"
  },
  {
    "Continent": "UAE",
    "Country": "Dubai & Sharjah",
    "State": "SHARJAH",
    "City": "ABUSHAGARA",
    "Name": "Sharjah - Abushagara",
    "CenterNumber": "unknown",
    "long": "55.3970325",
    "lat": "25.3378177",
    "Address": "FLAT-431 , AL NAKHOOS BUILDING , NEAR CITY CENTRE SUPERMARKET , \\r\\nABUSHAGARA , SHARJAH"
  },
  {
    "Continent": "UAE",
    "Country": "Dubai & Sharjah",
    "State": "SHARJAH",
    "City": "AL NAHADA",
    "Name": "Sharjah - Al Nahda",
    "CenterNumber": "unknown",
    "long": "55.3795319",
    "lat": "25.3010437",
    "Address": "GOLDEN FALCON KARATE CENTRE, SEALAND RESTAURANT BUILDING , \\r\\nAL NAHDA , SHARJAH"
  },
  {
    "Continent": "UAE",
    "Country": "Dubai & Sharjah",
    "State": "SHARJAH",
    "City": "AL QASIMIA",
    "Name": "Sharjah - Al Qasimia(Ladies)",
    "CenterNumber": "unknown",
    "long": "55.3939958",
    "lat": "25.3411346",
    "Address": "FLAT-801 , AL OWAIS BUILDING ,OPPOSITE TO AL BUSTAN TOWER ,\\r\\n NEAR CRYSTAL PLAZA HOTEL, SHARJAH"
  },
  {
    "Continent": "UAE",
    "Country": "Dubai & Sharjah",
    "State": "SHARJAH",
    "City": "AL QASIMIA",
    "Name": "Sharjah - Al Qasimia",
    "CenterNumber": "unknown",
    "long": "55.3915573",
    "lat": "25.3417989",
    "Address": "NIMR AL KHALEEJ KARATE CENTRE M02, TARIQ BUILDING ,\\r\\n NEAR SPARK HOTEL , AL NAD, SHARJAH."
  },
  {
    "Continent": "UAE",
    "Country": "Dubai & Sharjah",
    "State": "SHARJAH",
    "City": "MUWAILEH",
    "Name": "Sharjah - Muwaileh",
    "CenterNumber": "unknown",
    "long": "55.4527591",
    "lat": "25.2847108",
    "Address": "AL HUDA CHILDREN SKILL DEVELOPMENT CENTRE , SHAIKHA BUILDING,\\r\\nE102 , NEXT TO HILAL AL MADINA SUPERMARKET, ShARJAH"
  },
  {
    "Continent": "UAE",
    "Country": "Dubai & Sharjah",
    "State": "SHARJAH",
    "City": "MUWAILEH",
    "Name": "Sharjah-Muwaileh(Ladies)",
    "CenterNumber": "unknown",
    "long": "55.4485164",
    "lat": "25.2969015",
    "Address": "FLAT-302 , BUILDING NO-3521, OPPOSITE TO TAREEQ AL NOOF STATIONARY, \\r\\nMUWAILEH SCHOOL ZONE AREA, SHARJAH"
  },
  {
    "Continent": "UAE",
    "Country": "Dubai & Sharjah",
    "State": "AJMAN",
    "City": "RASHIDIYA",
    "Name": "Ajman - Rashidiya",
    "CenterNumber": "unknown",
    "long": "55.4485162",
    "lat": "25.3987023",
    "Address": "FLAT-108 , AL SHALI BUILDING , OPPOSITE TO FALCON TOWER-A5, \\r\\nNEAR NESTO HYPERMARKET, AJMAN"
  },
  {
    "Continent": "France",
    "Country": "France",
    "State": "France",
    "City": "COURBEVOIE",
    "Name": "Grieny Centre",
    "CenterNumber": "unknown",
    "long": "2.213749",
    "lat": "46.227638",
    "Address": "2 pl de Hotel de ville courbevoie 92400 France"
  },
  {
    "Continent": "Asia",
    "Country": "India",
    "State": "ANDHRA PRADESH",
    "City": "ELURU",
    "Name": "Eluru Gowri Sankar SKY Trust",
    "CenterNumber": "399",
    "long": "81.1083148",
    "lat": "16.7138185",
    "Address": "No.20B-4-90, Narni Veeresalingam Street, Kothapeta - Powerpeta, Gandhi Nagar, Eluru - 534 002."
  },
  {
    "Continent": "Asia",
    "Country": "India",
    "State": "ANDHRA PRADESH",
    "City": "ELURU",
    "Name": "Eluru Helapuri SKY Trust",
    "CenterNumber": "unknown",
    "long": "81.0952431",
    "lat": "16.7106604",
    "Address": " Dr.No.2-51, R.T.C. Colony, Satrampadu, Eluru - 534 007. West Godavari District"
  },
  {
    "Continent": "Asia",
    "Country": "India",
    "State": "ANDHRA PRADESH",
    "City": "ELURU",
    "Name": "Eluru SKY Meditation Trust",
    "CenterNumber": "43",
    "long": "0",
    "lat": "0",
    "Address": "Sankaralaya Street, No.2-86, Srinivasa Nagar, Satrampadu, Eluru Mandal, West Godavari, Andhra Pradesh - 534 007."
  },
  {
    "Continent": "Asia",
    "Country": "India",
    "State": "ANDHRA PRADESH",
    "City": "GUNTUR",
    "Name": "Guntur Acharya Nagarjuna SKY Trust",
    "CenterNumber": "444",
    "long": "79.74017432",
    "lat": "15.9128998",
    "Address": "D.No.5-94-31, 6/13A Brodiepet, Guntur 522 002."
  },
  {
    "Continent": "Asia",
    "Country": "India",
    "State": "ANDHRA PRADESH",
    "City": "GUNTUR",
    "Name": "Guntur Acharya Nagarjuna SKY Trust",
    "CenterNumber": "444",
    "long": "79.74017432",
    "lat": "15.9128998",
    "Address": "D.No.5-94-31, 6/13A Brodiepet, Guntur 522 002."
  },
  {
    "Continent": "Asia",
    "Country": "India",
    "State": "ANDHRA PRADESH",
    "City": "GUNTUR",
    "Name": "Guntur R. Agraharam SKY Trust",
    "CenterNumber": "392",
    "long": "80.4389107",
    "lat": "16.2905215",
    "Address": " D.No.24-5-17, R.Agraharam, Guntur 522 008, Adhara Pradesh."
  },
  {
    "Continent": "Asia",
    "Country": "India",
    "State": "ANDHRA PRADESH",
    "City": "GUNTUR",
    "Name": "Guntur R. Agraharam SKY Trust",
    "CenterNumber": "392",
    "long": "80.4389107",
    "lat": "16.2905215",
    "Address": " D.No.24-5-17, R.Agraharam, Guntur 522 008, Adhara Pradesh."
  },
  {
    "Continent": "Asia",
    "Country": "India",
    "State": "ANDHRA PRADESH",
    "City": "KOVVUR",
    "Name": "Gowthami Yoga Sravanthi SKY Trust",
    "CenterNumber": "329",
    "long": "81.7333",
    "lat": "17.0167",
    "Address": "No.13-11-14/4, Bapuji Nagar, Lawyers Colony, Kovvur - 534 350. West Godavari Dt, Andhra."
  },
  {
    "Continent": "Asia",
    "Country": "India",
    "State": "ANDHRA PRADESH",
    "City": "RAJAHMUNDRY",
    "Name": "Rajahmundry SKY Trust",
    "CenterNumber": "449",
    "long": "79.74008091",
    "lat": "15.9128998",
    "Address": "Address: D.No.07-23-01, Aswini Hospityals, Opp. to Hindu Samajam, Rajahmundry - 533 101. East Godavari District."
  },
  {
    "Continent": "Asia",
    "Country": "India",
    "State": "ANDHRA PRADESH",
    "City": "TIRUPATI",
    "Name": "Tirupathi Peddakapu Layout SKY Trust",
    "CenterNumber": "438",
    "long": "79.41927193",
    "lat": "13.6287557",
    "Address": "D.No.13-6-600 / 44 (7) Pedakapu Layout, Tirupathi,Chittoor District, Andhra - 517 507."
  },
  {
    "Continent": "Asia",
    "Country": "India",
    "State": "ANDHRA PRADESH",
    "City": "TIRUPATI",
    "Name": "Tirupati Subba Reddy Nagar SKY Trust",
    "CenterNumber": "417",
    "long": "79.4191795",
    "lat": "13.6287557",
    "Address": "D.No.7-4/B, Subba Reddy Nagar, Akkaram Palli Road, Tirupati - 517 501. Chittoor District, Andhra Pradesh."
  },
  {
    "Continent": "Asia",
    "Country": "India",
    "State": "ANDHRA PRADESH",
    "City": "VIJAYAWADA",
    "Name": "Vijayawada Omkara Dhyana Mandiram SKY Trust",
    "CenterNumber": "113",
    "long": "80.6480153",
    "lat": "16.5061743",
    "Address": "No.11-30-36, Seshaiah Street, Prardhana Sangham Upstairs, Vijayawada - 520 001."
  },
  {
    "Continent": "Asia",
    "Country": "India",
    "State": "ANDHRA PRADESH",
    "City": "VIJAYAWADA",
    "Name": "Vijayawada Vagu Veeranjaneya SKY Trust",
    "CenterNumber": "398",
    "long": "80.64810899",
    "lat": "16.5061743",
    "Address": "Address: 6-15-15, Ramakrishna Nivas, Agni Mandala kotaiah Street, Vagu Centre, Vijayawada - 520001 Correspondence Address: Plot No:55, Syndicate Bank colony, KL Rao Park Road, Chitti Nagar, Kothapet, Vijayawada - 520009"
  },
  {
    "Continent": "Asia",
    "Country": "India",
    "State": "ASSAM",
    "City": "BONGAIGAON",
    "Name": "Assam Sky Center",
    "CenterNumber": "",
    "long": "90.53718",
    "lat": "26.47546",
    "Address": "Central Colony  Rly Qtr. No. N/453/A  PO New Bongaigaon  Dist. Bongaigaon  Pin 783381 Assam"
  },
  {
    "Continent": "Asia",
    "Country": "India",
    "State": "DELHI NCR",
    "City": "DELHI NCR",
    "Name": "Delhi Centre (Head Office / R.K.Puram Centre)",
    "CenterNumber": "unknown",
    "long": "77.1777752",
    "lat": "28.5585972",
    "Address": "Grih Kalyan Kendra, R.K.Puram, Sector-4, R.K.Puram, New Delhi-22."
  },
  {
    "Continent": "Asia",
    "Country": "India",
    "State": "DELHI NCR",
    "City": "GURGAON",
    "Name": "Delhi NCR - Gurgaon SKY Trust",
    "CenterNumber": "509",
    "long": "77.0967965",
    "lat": "28.4217917",
    "Address": "B-043, GAIL SOCIETY, PLOT NO GH 09, SECTOR 56, GURGAON, HARYANA,- 122011"
  },
  {
    "Continent": "Asia",
    "Country": "India",
    "State": "DELHI NCR",
    "City": "NOIDA",
    "Name": "Delhi - Noida SKY Centre",
    "CenterNumber": "unknown",
    "long": "77.3920128",
    "lat": "28.5359025",
    "Address": "Lincoln C 703, Grand Omaxe, Expressway, Sector 93 B Near Panchsheel Balak Inter College Noida 201304"
  },
  {
    "Continent": "Asia",
    "Country": "India",
    "State": "HARYANA",
    "City": "GURGAON",
    "Name": "Delhi NCR - Gurgaon SKY Trust",
    "CenterNumber": "389",
    "long": "77.0967965",
    "lat": "28.4217917",
    "Address": "B-043, GAIL SOCIETY, PLOT NO GH 09, SECTOR 56, GURGAON, HARYANA,- 122011"
  },
  {
    "Continent": "Asia",
    "Country": "India",
    "State": "KARNATAKA",
    "City": "BENGALURU",
    "Name": "Bangalore Chandapura SKY Trust",
    "CenterNumber": "475",
    "long": "77.6335088",
    "lat": "13.0173525",
    "Address": " # 778/42, Ramaiah Layout, Chandapura, Attibele Hobli, Anekal(Taluk), Bengaluru - 560 099"
  },
  {
    "Continent": "Asia",
    "Country": "India",
    "State": "KARNATAKA",
    "City": "BENGALURU",
    "Name": "Bangalore KR Puram SKY Trust",
    "CenterNumber": "70",
    "long": "85.1297844",
    "lat": "27.0864894",
    "Address": "Sri PRASONA, 229/1, Nandagokula Street, Akash Nagar, 3rd Cross, K.R.Puram, Bengaluru - 560 016"
  },
  {
    "Continent": "Asia",
    "Country": "India",
    "State": "KARNATAKA",
    "City": "BENGALURU",
    "Name": "Bangalore Machohalli SKY Trust",
    "CenterNumber": "376",
    "long": "77.4542804",
    "lat": "12.9907903",
    "Address": " # 4, Machohalli, Vishwaneedam Post, Magadi Main Road, Bengaluru - 560 091"
  },
  {
    "Continent": "Asia",
    "Country": "India",
    "State": "KARNATAKA",
    "City": "BENGALURU",
    "Name": "Bangalore Malleswaram SKY Trust",
    "CenterNumber": "19",
    "long": "77.5786286",
    "lat": "13.0021751",
    "Address": " 33/59, 2nd Floor, Above Bata Showroom, 2nd Main Rd, Vyalikaval, Bengaluru, Karnataka 560003"
  },
  {
    "Continent": "Asia",
    "Country": "India",
    "State": "KARNATAKA",
    "City": "BENGALURU",
    "Name": "Bangalore Panchasheela nagara SKY Trust",
    "CenterNumber": "307",
    "long": "0",
    "lat": "0",
    "Address": "# 302, 7th Cross, 1st Stage, Panchasheelanagar, Moodalapalya, Bengaluru - 560 072"
  },
  {
    "Continent": "Asia",
    "Country": "India",
    "State": "KARNATAKA",
    "City": "BENGALURU",
    "Name": "Bangalore Peenya SKY Trust",
    "CenterNumber": "480",
    "long": "77.4885727",
    "lat": "13.0002867",
    "Address": "# 64, Maruthi Nagar, Andrahalli Main Road, Bengaluru - 560 091"
  },
  {
    "Continent": "Asia",
    "Country": "India",
    "State": "KARNATAKA",
    "City": "BENGALURU",
    "Name": "Bangalore RT Nagar SKY Trust",
    "CenterNumber": "111",
    "long": "77.5855752",
    "lat": "13.0229777",
    "Address": "#62/1, 1st Cross, 2nd Main, Ganganagar, Bengaluru - 560 032"
  },
  {
    "Continent": "Asia",
    "Country": "India",
    "State": "KARNATAKA",
    "City": "BENGALURU",
    "Name": "Bangalore Shivajinagar SKY Trust",
    "CenterNumber": "188",
    "long": "77.6205058",
    "lat": "13.0017896",
    "Address": "A/N T.B. Jaya Kumar, # 17/2, Lazar Road, 1st Cross, Frazer Town, Bengaluru - 560 005"
  },
  {
    "Continent": "Asia",
    "Country": "India",
    "State": "KARNATAKA",
    "City": "BENGALURU",
    "Name": "Bangalore Sivanandanagar SKY Trust",
    "CenterNumber": "497",
    "long": "77.5263897",
    "lat": "12.9701318",
    "Address": "#32, 5th Cross, Sivanandanagar (Kanaka School Road), Moodalapalya,Nagarbhavi Main Road, Bengaluru - 560 072"
  },
  {
    "Continent": "Asia",
    "Country": "India",
    "State": "KARNATAKA",
    "City": "BENGALURU",
    "Name": "Bangalore Srirampuram SKY Trust",
    "CenterNumber": "219",
    "long": "77.565105",
    "lat": "12.9863792",
    "Address": "A. Vivekananda, 12/77, 1st Main Road, New Kalappa Block, Srirampuram, Bengaluru - 560 021"
  },
  {
    "Continent": "Asia",
    "Country": "India",
    "State": "KARNATAKA",
    "City": "BENGALURU",
    "Name": "Bangalore Vimanapura SKY Trust",
    "CenterNumber": "295",
    "long": "77.6775261",
    "lat": "12.9748321",
    "Address": " # 582/1A, 6th Cross, 1st Main, L.B.Shastrinagar, Vimanapura Post, Bengaluru - 560 017"
  },
  {
    "Continent": "Asia",
    "Country": "India",
    "State": "KARNATAKA",
    "City": "BENGALURU",
    "Name": "Bangalore Vishala Karnataka SKY Trust",
    "CenterNumber": "109",
    "long": "77.7065754",
    "lat": "12.7226843",
    "Address": "Anekal Aravinda Sri Mandira, Kavala Hosahalli, Anekal, Bengaluru - 562 106"
  },
  {
    "Continent": "Asia",
    "Country": "India",
    "State": "KARNATAKA",
    "City": "BENGALURU",
    "Name": "Channapatna SKY Trust",
    "CenterNumber": "414",
    "long": "77.4759713",
    "lat": "12.9870326",
    "Address": "# 5, Anushree ashraya, Yelekodigehalli village and Post, Opp Magadi Main Road, Bengaluru -560 091."
  },
  {
    "Continent": "Asia",
    "Country": "India",
    "State": "KARNATAKA",
    "City": "MYSORE",
    "Name": "Mysore Brindavan SKY Trust",
    "CenterNumber": "344",
    "long": "76.6340511",
    "lat": "12.3420829",
    "Address": "#58, 5th Cross, 1st Stage, Brindavan Extension, Mysore - 570 020"
  },
  {
    "Continent": "Asia",
    "Country": "India",
    "State": "KERALA",
    "City": "ALAPPUZHA",
    "Name": "Alappuzha SKY Trust",
    "CenterNumber": "442",
    "long": "76.33893948",
    "lat": "9.4980667",
    "Address": "ARATTU VAZHI OPPOSITE TO SANJOSE HOSPITAL ALAPPUZHA NORTH. A/N. A.R.DOMINIC, ARACKAL (HOUSE), CANAL ROAD, ALAPPUZHA, KERALA-688 007"
  },
  {
    "Continent": "Asia",
    "Country": "India",
    "State": "KERALA",
    "City": "CHERTHALA",
    "Name": "Cherthala SKY Trust",
    "CenterNumber": "463",
    "long": "0",
    "lat": "0",
    "Address": " A/N.P.J.ABRAHAM, PULLURTHIKARIYIL HOUSE, PROVIDANCE JUNCTION, CHERTHALA-PO.ALAPUZHA DIST KERALA-688524"
  },
  {
    "Continent": "Asia",
    "Country": "India",
    "State": "KERALA",
    "City": "CHERTHALA",
    "Name": "Poornnam SKY Trust",
    "CenterNumber": "224",
    "long": "76.3388484",
    "lat": "9.4980667",
    "Address": "C/o, No.4/41, Parklane Road, Cherthala North Village, Cherthala, Alleppey District, Kerala - 688 524."
  },
  {
    "Continent": "Asia",
    "Country": "India",
    "State": "KERALA",
    "City": "CUMBUMMETTU PO",
    "Name": "Kumily SKY Trust",
    "CenterNumber": "221",
    "long": "76.9297354",
    "lat": "9.8138076",
    "Address": " Vadakkekollyil House, Cumbummettu P.O., Idukky District, Kerala - 685 551."
  },
  {
    "Continent": "Asia",
    "Country": "India",
    "State": "KERALA",
    "City": "ERNAKULAM",
    "Name": "Chendamangalam SKY Trust",
    "CenterNumber": "unknown",
    "long": "76.2998842",
    "lat": "9.9816358",
    "Address": " MANGATTU HOUSE MRRA-25, MANGATTU ROAD MAMANGALAM ERNAKULAM-682025, KERALAThykkottathil Housr, Vadakkumpuram (post),North Paravur Taluk,Ernakulam Dist.,Kerala- 683 521 Kerala - 683 521."
  },
  {
    "Continent": "Asia",
    "Country": "India",
    "State": "KERALA",
    "City": "ERNAKULAM",
    "Name": "Jyothis SKY Trust",
    "CenterNumber": "123",
    "long": "76.2673041",
    "lat": "9.9312328",
    "Address": "MANGATTU HOUSE MRRA-25, MANGATTU ROAD MAMANGALAM ERNAKULAM-682025, KERALA"
  },
  {
    "Continent": "Asia",
    "Country": "India",
    "State": "KERALA",
    "City": "ERUVA",
    "Name": "Eruva SKY Trust",
    "CenterNumber": "479",
    "long": "76.4967458",
    "lat": "9.1939662",
    "Address": " A/N.GOPINATHAN.G, ASWATHI, ERUVA EAST, ERUVA-PO, KAYAMKULAM, KERALA-690572"
  },
  {
    "Continent": "Asia",
    "Country": "India",
    "State": "KERALA",
    "City": "IRITTY",
    "Name": "Iritty - Kannur SKY Trust",
    "CenterNumber": "452",
    "long": "75.3703662",
    "lat": "11.8744775",
    "Address": " A/N.KALAVOOR JOHNSON, PANACHIKKAL HOUSE. KUNNOTH, KILIYANTHARA-PO IRITTY-670706, KERALA.  ."
  },
  {
    "Continent": "Asia",
    "Country": "India",
    "State": "KERALA",
    "City": "KADAMBUR PO",
    "Name": "Kannur SKY Trust",
    "CenterNumber": "unknown",
    "long": "0",
    "lat": "0",
    "Address": "M.S.ANAND, MANIKKOTH (HOUSE), KADAMBUR-PO, KANNUR-DIST, KERALA-670 663 CHANDRAN .K.V, MEGHA NIVAS, CHALA, THOTTADA -PO, KANNUR-670007,"
  },
  {
    "Continent": "Asia",
    "Country": "India",
    "State": "KERALA",
    "City": "KAYAMKULAM",
    "Name": "Kayamkulam SKY Trust",
    "CenterNumber": "456",
    "long": "76.515156",
    "lat": "9.1843659",
    "Address": "HARISREE,KMCXXXVI/1595 PUTHIYIDOM,KAYAMKULAM,KERALA-690 502"
  },
  {
    "Continent": "Asia",
    "Country": "India",
    "State": "KERALA",
    "City": "KOZHIKODE",
    "Name": "Calicut SKY Trust",
    "CenterNumber": "281",
    "long": "75.78041",
    "lat": "11.2587531",
    "Address": "A/N. Dr. T.N.VIJAYAKUMAR SREE SAILAM CHEMPILIPARAMBA, KARAPPARAMBA, KOZHIKODE-673 010"
  },
  {
    "Continent": "Asia",
    "Country": "India",
    "State": "KERALA",
    "City": "PUTHUR",
    "Name": "Palakkad SKY Trust",
    "CenterNumber": "478",
    "long": "76.662929",
    "lat": "10.7865687",
    "Address": "SREEPADAM DURGA JUNCTION, PUTHUR, PALAKKAD- 678 001 KERALA"
  },
  {
    "Continent": "Asia",
    "Country": "India",
    "State": "KERALA",
    "City": "THIRUVANANTHAPURAM",
    "Name": "Thiruvananthapuram SKY Trust",
    "CenterNumber": "448",
    "long": "76.9423828",
    "lat": "8.4890682",
    "Address": " SRA-10,TC/1452, FORT-PO, THIRUVANANTHAPURAM, KERALA-695 023 ."
  },
  {
    "Continent": "Asia",
    "Country": "India",
    "State": "KERALA",
    "City": "VAZHOOR",
    "Name": "Pallickathodu SKY Trust",
    "CenterNumber": "460",
    "long": "76.5221531",
    "lat": "9.5915668",
    "Address": "Puthyidathu (House), Vazhoor (PO), Kottayam Dist."
  },
  {
    "Continent": "Asia",
    "Country": "India",
    "State": "MAHARASHTRA",
    "City": "MUMBAI - CHEMBUR (EAST)",
    "Name": "Mumbai - Chembur SKY Trust",
    "CenterNumber": "207",
    "long": "0",
    "lat": "0",
    "Address": "Main Meditation Centre, C/O Vivekanand Educational Society, Vocational Guidance Centre, Opposite CLAN House Tower, near Sindhi Society Gymkhana, Sindhi Society, Chembur (East), Mumbai-71."
  },
  {
    "Continent": "Asia",
    "Country": "India",
    "State": "MAHARASHTRA",
    "City": "PUNE",
    "Name": "Pune SKY Center",
    "CenterNumber": "unknown",
    "long": "73.8844835",
    "lat": "18.5780457",
    "Address": "C-306, Nandan Euphora, Dasharath Nagar, Off . Airport Road, Vishrant Wadi, Pune 411015"
  },
  {
    "Continent": "Asia",
    "Country": "India",
    "State": "ORRISA",
    "City": "BHUVANESWAR",
    "Name": "Orrisa Sky Center",
    "CenterNumber": "unknown",
    "long": "85.80244518",
    "lat": "20.2951024",
    "Address": "C/o Bhuvaneswar  Tamil Sangam\\r\\nPlot no  9 Ekamra Vihar VIP Colony Nayapalli Bhuvaneswar  751015"
  },
  {
    "Continent": "Asia",
    "Country": "India",
    "State": "PONDICHERRY",
    "City": "PUDUCHERRY",
    "Name": "Pondicherry Bahour MVKM Trust",
    "CenterNumber": "468",
    "long": "79.7441651",
    "lat": "11.8044555",
    "Address": " No:103,South Street, Bahour, Pondicherry-607402"
  },
  {
    "Continent": "Asia",
    "Country": "India",
    "State": "PONDICHERRY",
    "City": "PUDUCHERRY",
    "Name": "Pondicherry Embalam MVKM Trust",
    "CenterNumber": "469",
    "long": "0",
    "lat": "0",
    "Address": "57, Villiyanur main road, Embalam, Pondicheery-605106"
  },
  {
    "Continent": "Asia",
    "Country": "India",
    "State": "PONDICHERRY",
    "City": "PUDUCHERRY",
    "Name": "Pondicherry Lawspet MVKM Trust",
    "CenterNumber": "253",
    "long": "0",
    "lat": "0",
    "Address": "No.2, 22 nd Cross Street, Avvai Nagar, Lawspet, Pondi - 605 008."
  },
  {
    "Continent": "Asia",
    "Country": "India",
    "State": "PONDICHERRY",
    "City": "PUDUCHERRY",
    "Name": "Pondicherry Villiyanur MVKM Trust",
    "CenterNumber": "470",
    "long": "79.8115741",
    "lat": "11.9174015",
    "Address": "Plot no;5, Bharathi Street, Thillai Nagar, Villiyanur, Pondicherry-605110"
  },
  {
    "Continent": "Asia",
    "Country": "India",
    "State": "PONDICHERRY",
    "City": "PUDUCHERRY",
    "Name": "Puducherry Thirubuvanai MVKM Trust",
    "CenterNumber": "467",
    "long": "79.6507597",
    "lat": "11.9236663",
    "Address": "No:2,V.T.C Veethi,Jaibeem Nagar, Thirubuvanai(PO), Puducherry-605107,"
  },
  {
    "Continent": "Asia",
    "Country": "India",
    "State": "PONDICHERRY",
    "City": "PUDUCHERRY",
    "Name": "Vethapuram MVKM Trust",
    "CenterNumber": "5",
    "long": "79.8188341",
    "lat": "11.93968",
    "Address": "No.18, 8th Cross Street, Brindhavanam, Pondy - 605 013."
  },
  {
    "Continent": "Asia",
    "Country": "India",
    "State": "TAMILNADU",
    "City": "ARIYALUR",
    "Name": "Ariyalur MVKM Trust",
    "CenterNumber": "unknown",
    "long": "79.0754126",
    "lat": "11.1356508",
    "Address": "Address: 45-C, Court Street, Ariyalur - 621 704."
  },
  {
    "Continent": "Asia",
    "Country": "India",
    "State": "TAMILNADU",
    "City": "ARIYALUR",
    "Name": "Jayankondam MVKM Trust",
    "CenterNumber": "unknown",
    "long": "79.3612652",
    "lat": "11.2143483",
    "Address": " Temple of Consciousness, Ayyanar koil Valagam, Jayakondam 621 804. Ariyalur District"
  },
  {
    "Continent": "India",
    "Country": "India",
    "State": "TAMILNADU",
    "City": "ARIYALUR",
    "Name": "Ariyalur MVKM Trust",
    "CenterNumber": "306",
    "long": "79.0754126",
    "lat": "11.1356508",
    "Address": "45-C, Court Street, Ariyalur - 621 704."
  },
  {
    "Continent": "India",
    "Country": "India",
    "State": "TAMILNADU",
    "City": "ARIYALUR",
    "Name": "Jayankondam MVKM Trust",
    "CenterNumber": "2",
    "long": "79.3612652",
    "lat": "11.2143483",
    "Address": "Iyyanar Koil Campus, Iyyanar Koil Street, Chidambaram Road, Jayankondam 621 802"
  },
  {
    "Continent": "India",
    "Country": "India",
    "State": "TAMILNADU",
    "City": "CHENNAI",
    "Name": "Anna Nagar MVKM Trust",
    "CenterNumber": "82",
    "long": "80.2029689",
    "lat": "13.0854894",
    "Address": "E-10, Sneham Apartments,  3 Park Road, Padi (Anna Nagar West Ext) Chennai - 600 050."
  },
  {
    "Continent": "India",
    "Country": "India",
    "State": "TAMILNADU",
    "City": "CHENNAI",
    "Name": "Besant Nagar MVKM Trust",
    "CenterNumber": "382",
    "long": "-116.419389",
    "lat": "38.8026097",
    "Address": "Jenith Akash, 80/5, T.M.Maistry Street,  Thiruvanmiyur, Chennai 600 041."
  },
  {
    "Continent": "India",
    "Country": "India",
    "State": "TAMILNADU",
    "City": "CHENNAI",
    "Name": "Chennai Adambakkam Lake View MVKM Trust",
    "CenterNumber": "237",
    "long": "0",
    "lat": "0",
    "Address": "Chennai Maanagar Arivuthirkkoil, 358, Vallal Kari Street, Srinivasa Nagar, Kaiveli, East Madipakkam, Chennai  600 091."
  },
  {
    "Continent": "India",
    "Country": "India",
    "State": "TAMILNADU",
    "City": "CHENNAI",
    "Name": "Chennai Ambal Nagar MVKM Trust",
    "CenterNumber": "365",
    "long": "0",
    "lat": "0",
    "Address": "7/15, Shanmugaraja Street,  Gandhi Nagar, Ekkattuthangal,  Guindy, Chennai - 600032."
  },
  {
    "Continent": "India",
    "Country": "India",
    "State": "TAMILNADU",
    "City": "CHENNAI",
    "Name": "Chennai KK.Nagar MVKM Trust",
    "CenterNumber": "31",
    "long": "0",
    "lat": "0",
    "Address": "No.16/491, 24th St, 5th Sector,K.K.Nagar, Chennai - 600078."
  },
  {
    "Continent": "India",
    "Country": "India",
    "State": "TAMILNADU",
    "City": "CHENNAI",
    "Name": "Chennai Kumaran Nagar MVKM Trust",
    "CenterNumber": "347",
    "long": "80.2316085",
    "lat": "13.1178796",
    "Address": "3/99, Annal Gandhi Street, (I Cross Street), Kumaran Nagar, Chennai 600 082."
  },
  {
    "Continent": "India",
    "Country": "India",
    "State": "TAMILNADU",
    "City": "CHENNAI",
    "Name": "Chennai Kuyapet MVKM Trust.",
    "CenterNumber": "209",
    "long": "0",
    "lat": "0",
    "Address": "No.52, Kandasami Koil Street, Kuyapet, Chennai - 600012."
  },
  {
    "Continent": "India",
    "Country": "India",
    "State": "TAMILNADU",
    "City": "CHENNAI",
    "Name": "Chennai Secretariat MVKM Trust",
    "CenterNumber": "unknown",
    "long": "80.1431918",
    "lat": "12.9804251",
    "Address": "No.17, Sathiyamoorthy Street, V.O.C. Nagar, Pammal, Chennai 600 075."
  },
  {
    "Continent": "India",
    "Country": "India",
    "State": "TAMILNADU",
    "City": "CHENNAI",
    "Name": "Chepaukkam MVKM Trust",
    "CenterNumber": "192",
    "long": "80.2805753",
    "lat": "13.0639677",
    "Address": "Office of the Chief Engineer PWD, Plan Formulation Office, Chepaukkam, Chennai 600 005."
  },
  {
    "Continent": "India",
    "Country": "India",
    "State": "TAMILNADU",
    "City": "CHENNAI",
    "Name": "Chetpet MVKM Trust",
    "CenterNumber": "236",
    "long": "80.2423951",
    "lat": "13.0724408",
    "Address": "No.3/1, (7), Ranganathapuram St, Chetpet, Chennai - 600031."
  },
  {
    "Continent": "India",
    "Country": "India",
    "State": "TAMILNADU",
    "City": "CHENNAI",
    "Name": "D.M.S.MVKM Trust",
    "CenterNumber": "151",
    "long": "80.2455126",
    "lat": "13.166812",
    "Address": "No.2673, LIG II, MMDA, Mathur, Manali, Chennai - 600068."
  },
  {
    "Continent": "India",
    "Country": "India",
    "State": "TAMILNADU",
    "City": "CHENNAI",
    "Name": "Guindy Secretariate Colony MVKM",
    "CenterNumber": "293",
    "long": "80.2091297",
    "lat": "12.9973507",
    "Address": "No.16/4, Gopalakrishnan St, Ganesh Nagar, Guindy, Chennai - 600032."
  },
  {
    "Continent": "India",
    "Country": "India",
    "State": "TAMILNADU",
    "City": "CHENNAI",
    "Name": "Ice House MVKM Trust",
    "CenterNumber": "310",
    "long": "80.2744871",
    "lat": "13.0494547",
    "Address": "N.No.75, Dr.Nadesan Salai, Ice House, Triplicane, Chennai  - 5."
  },
  {
    "Continent": "India",
    "Country": "India",
    "State": "TAMILNADU",
    "City": "CHENNAI",
    "Name": "Kolathur Teachers Colony MVKM Trust",
    "CenterNumber": "346",
    "long": "-79.02070518",
    "lat": "35.7618715",
    "Address": " No.72, Bharath Rajiv Gandhi Nagar,  Kolathur, Chennai  - 600099."
  },
  {
    "Continent": "India",
    "Country": "India",
    "State": "TAMILNADU",
    "City": "CHENNAI",
    "Name": "Kottur Garden MVKM Trust",
    "CenterNumber": "353",
    "long": "0",
    "lat": "0",
    "Address": " 4/20, 3rd Main Road, Kottur Gardens, Chennai - 600085."
  },
  {
    "Continent": "India",
    "Country": "India",
    "State": "TAMILNADU",
    "City": "CHENNAI",
    "Name": "Mandaveli MVKM Trust",
    "CenterNumber": "300",
    "long": "80.2591371",
    "lat": "13.0223022",
    "Address": "No.8/68, Adaijan Mudalai St, Chennai - 600028."
  },
  {
    "Continent": "India",
    "Country": "India",
    "State": "TAMILNADU",
    "City": "CHENNAI",
    "Name": "MKB Nagar MVKM Trust",
    "CenterNumber": "122",
    "long": "0",
    "lat": "0",
    "Address": "C/o.V.Palani, Secretary, M14/12, Mathiya Nizhar Salai, Chennai 600 039."
  },
  {
    "Continent": "India",
    "Country": "India",
    "State": "TAMILNADU",
    "City": "CHENNAI",
    "Name": "Muthamizh Nagar MVKM Trust",
    "CenterNumber": "263",
    "long": "80.2495922",
    "lat": "13.1357061",
    "Address": " No.7/289, North Avenue Street, Muthamizh Nagar, Chennai - 600118."
  },
  {
    "Continent": "India",
    "Country": "India",
    "State": "TAMILNADU",
    "City": "CHENNAI",
    "Name": "Mylapore MVKM Trust",
    "CenterNumber": "28",
    "long": "0",
    "lat": "0",
    "Address": "No.12, South Mada Street, Mylapore, Chennai - 600004."
  },
  {
    "Continent": "India",
    "Country": "India",
    "State": "TAMILNADU",
    "City": "CHENNAI",
    "Name": "Perambur MVKM Trust",
    "CenterNumber": "97",
    "long": "80.0864421",
    "lat": "12.8927617",
    "Address": "66/3, Gnanambal Illam, Melpatti Ponnappa St, Perambur, Chennai - 600039."
  },
  {
    "Continent": "India",
    "Country": "India",
    "State": "TAMILNADU",
    "City": "CHENNAI",
    "Name": "Rangarajapuram MVKM Trust",
    "CenterNumber": "32",
    "long": "80.2227289",
    "lat": "13.0475137",
    "Address": "129/54, RANGARAJAPURAM MAIN ROAD, KODAMBAKKAM, CHENNAI  600 024."
  },
  {
    "Continent": "India",
    "Country": "India",
    "State": "TAMILNADU",
    "City": "CHENNAI",
    "Name": "Royapuram MVKM Trust",
    "CenterNumber": "302",
    "long": "80.2639935",
    "lat": "13.0931781",
    "Address": "No.13, East Madha Koil Street, 7th Lane, Royapuram, Chennai - 600013."
  },
  {
    "Continent": "India",
    "Country": "India",
    "State": "TAMILNADU",
    "City": "CHENNAI",
    "Name": "Saidai N.S.S.MVKM Trust",
    "CenterNumber": "401",
    "long": "80.2144616",
    "lat": "13.0205859",
    "Address": "A/N.A.Natarajan, Managing Trustee, 2/14A, Narayanasamy Street, West Saidapet, Chennai 600 015."
  },
  {
    "Continent": "India",
    "Country": "India",
    "State": "TAMILNADU",
    "City": "CHENNAI",
    "Name": "Saidapet Jones  Road MVKM Trust",
    "CenterNumber": "271",
    "long": "80.1391395",
    "lat": "13.1180685",
    "Address": "  Brindhavan Illam, No.45/ 17 & 18, Jones Road, Saidapet, Chennai - 15."
  },
  {
    "Continent": "India",
    "Country": "India",
    "State": "TAMILNADU",
    "City": "CHENNAI",
    "Name": "Saidapet Jones Road MVKM Trust",
    "CenterNumber": "271",
    "long": "0",
    "lat": "0",
    "Address": "A/N.KARUNAKARAN, MANAGING TRUSTEE NO.45/17&18, BRINDHAVAN ILLAM, JONES ROAD, SAIDAPET, CHENNAI  600 015."
  },
  {
    "Continent": "India",
    "Country": "India",
    "State": "TAMILNADU",
    "City": "CHENNAI",
    "Name": "Saidapettai MVKM Trust",
    "CenterNumber": "189",
    "long": "80.2231266",
    "lat": "13.0212991",
    "Address": "Door No.21/12, Ethiraj-Amirtha Valli Illam, Mosque Street, West Saidapet,  Chennai - 600 015."
  },
  {
    "Continent": "India",
    "Country": "India",
    "State": "TAMILNADU",
    "City": "CHENNAI",
    "Name": "Saligramam MVKM Trust",
    "CenterNumber": "437",
    "long": "80.1855529",
    "lat": "13.07373066",
    "Address": "No.85, 3rd Street, (S2, 2nd Floor), SBI Colony, Virugambakkam, Chennai 600 092."
  },
  {
    "Continent": "India",
    "Country": "India",
    "State": "TAMILNADU",
    "City": "CHENNAI",
    "Name": "T.Nagar Pothys  MVKM Trust",
    "CenterNumber": "427",
    "long": "80.2321029",
    "lat": "13.0379113",
    "Address": "C/o.A/N.S.Sekar, A.O.,No.75, D, Sri Rajalakshmi Flats, 2nd Cross St, New NGGO Colony, (Near E.B.Colony) Adambakkam, Chennai 600 088."
  },
  {
    "Continent": "India",
    "Country": "India",
    "State": "TAMILNADU",
    "City": "CHENNAI",
    "Name": "Thiruvanmiyur MVKM Trust",
    "CenterNumber": "284",
    "long": "0",
    "lat": "0",
    "Address": "No.14-B, CGE Colony,  (Near Bhavani Medai), Thiruvanmiyur Kuppam Beach Road,  Thiruvamiyur, Chennai - 600 041."
  },
  {
    "Continent": "India",
    "Country": "India",
    "State": "TAMILNADU",
    "City": "CHENNAI",
    "Name": "Velachery MVKM Trust",
    "CenterNumber": "200",
    "long": "80.2239905",
    "lat": "12.9817507",
    "Address": "Sai Akil - 4/3, Dr.Seethapathi Nagar,Fourth Cross Street, Velachery, Chennai 600 042."
  },
  {
    "Continent": "India",
    "Country": "India",
    "State": "TAMILNADU",
    "City": "CHENNAI",
    "Name": "Villivakkam MVKM Trust",
    "CenterNumber": "374",
    "long": "0",
    "lat": "0",
    "Address": "No.29/2, Vellalar Street, Villivakkam, Chennai - 600 049."
  },
  {
    "Continent": "India",
    "Country": "India",
    "State": "TAMILNADU",
    "City": "CHENNAI",
    "Name": "Vyasarpadi MVKM Trust",
    "CenterNumber": "377",
    "long": "0",
    "lat": "0",
    "Address": "Plat 3A, Block 1, KKR Richy Dale, 131, Madhavaram High Road, Perambur, Chennai 600 011."
  },
  {
    "Continent": "India",
    "Country": "India",
    "State": "TAMILNADU",
    "City": "COIMBATORE",
    "Name": "Annur MVKM Trust",
    "CenterNumber": "422",
    "long": "0",
    "lat": "0",
    "Address": "No.133/2-A-5-1, V.O.C. Street, 1st Floor, Angappa Mudaliar Colony, Annur 641 653, Coimbatore Dist."
  },
  {
    "Continent": "India",
    "Country": "India",
    "State": "TAMILNADU",
    "City": "COIMBATORE",
    "Name": "Aruvankadu MVKM Trust",
    "CenterNumber": "110",
    "long": "0",
    "lat": "0",
    "Address": "No.10/155.B,  Vinayakar Koil St, Aruvankadu  P.O., The Nilgiris - 643202."
  },
  {
    "Continent": "India",
    "Country": "India",
    "State": "TAMILNADU",
    "City": "COIMBATORE",
    "Name": "Gudalur MVKM Trust",
    "CenterNumber": "63",
    "long": "76.5372625",
    "lat": "11.5158296",
    "Address": "No.10/65, Kalyani Jewellary 1st Floor, Ooty - Mysore Main Road,  Gudalur, Nilagiri  643 212."
  },
  {
    "Continent": "India",
    "Country": "India",
    "State": "TAMILNADU",
    "City": "COIMBATORE",
    "Name": "Jegathala MVKM Trust",
    "CenterNumber": "288",
    "long": "76.7336521",
    "lat": "11.4916043",
    "Address": "No.4/233, Jegathala Villager & Post, The Nilgiris - 643 202."
  },
  {
    "Continent": "India",
    "Country": "India",
    "State": "TAMILNADU",
    "City": "COIMBATORE",
    "Name": "Karamadai MVKM Trust",
    "CenterNumber": "92",
    "long": "0",
    "lat": "0",
    "Address": "T.O.C. 2/308, Thirumoolar Street, Aravindar  colony, Karamadai, Coimbatore  - 641 104."
  },
  {
    "Continent": "India",
    "Country": "India",
    "State": "TAMILNADU",
    "City": "COIMBATORE",
    "Name": "Kinathukadavu MVKM Trust",
    "CenterNumber": "434",
    "long": "0",
    "lat": "0",
    "Address": " C/o.A/N.K.Kannaiyan,  No.120, Pollachi Main Road, Kinathukadavu 642 109,"
  },
  {
    "Continent": "India",
    "Country": "India",
    "State": "TAMILNADU",
    "City": "COIMBATORE",
    "Name": "Kollapalli MVKM Trust",
    "CenterNumber": "162",
    "long": "76.3292754",
    "lat": "11.5251883",
    "Address": "No.6/119, 2,  Kolapalli Main Road, Kollapalli, Pandalur.T.K - 643253."
  },
  {
    "Continent": "India",
    "Country": "India",
    "State": "TAMILNADU",
    "City": "COIMBATORE",
    "Name": "Kovai MVKM Trust",
    "CenterNumber": "34",
    "long": "0",
    "lat": "0",
    "Address": "121, MAY FLOWER Complex II Floor, 10th Street, Gandhipuram, Coimbatore - 641 012. Ph:0422 - 2494242."
  },
  {
    "Continent": "India",
    "Country": "India",
    "State": "TAMILNADU",
    "City": "COIMBATORE",
    "Name": "Kovai South Ramanathapuram MVKM Trust",
    "CenterNumber": "481",
    "long": "0",
    "lat": "0",
    "Address": "No.26/2, Bharathi Nagar, 4th Veethi, Ramanathapuram Post, Coimbatore 641 045."
  },
  {
    "Continent": "India",
    "Country": "India",
    "State": "TAMILNADU",
    "City": "COIMBATORE",
    "Name": "Kovai Sundarapuram MVKM Trust",
    "CenterNumber": "324",
    "long": "0",
    "lat": "0",
    "Address": "5/11D-2, Gandhiji Road, Sundarapuram PO, Kurinji, Coimbatore - 641 024."
  },
  {
    "Continent": "India",
    "Country": "India",
    "State": "TAMILNADU",
    "City": "COIMBATORE",
    "Name": "MANNUR RAMANATHAPURAM MANAVALA KALAI MANDARM TRUST",
    "CenterNumber": "unknown",
    "long": "77.0076156",
    "lat": "10.6604498",
    "Address": "No: 4/65, Jaihind Murugan Nilayam, Palghat Main Road, Pollachi Tk, Coimbatore - 642 005"
  },
  {
    "Continent": "India",
    "Country": "India",
    "State": "TAMILNADU",
    "City": "COIMBATORE",
    "Name": "Mettupalayam MVKM Trust",
    "CenterNumber": "91",
    "long": "0",
    "lat": "0",
    "Address": "152 D, K.K.Nagar, Karamadai Road, Mettupalayam, Coimbatore - 641301."
  },
  {
    "Continent": "India",
    "Country": "India",
    "State": "TAMILNADU",
    "City": "COIMBATORE",
    "Name": "North Kovai MVKM Trust",
    "CenterNumber": "46",
    "long": "0",
    "lat": "0",
    "Address": "Kandasamy & Co., Campus, No.266, Mettupalayam Road, Coimbatore - 641 043."
  },
  {
    "Continent": "India",
    "Country": "India",
    "State": "TAMILNADU",
    "City": "COIMBATORE",
    "Name": "P.N.Pudur MVKM Trust",
    "CenterNumber": "94",
    "long": "0",
    "lat": "0",
    "Address": "Anandha Nagar Main Veethi, Anandha Nagar, P.N.Pudur (Post), Coimbatore - 641 041"
  },
  {
    "Continent": "India",
    "Country": "India",
    "State": "TAMILNADU",
    "City": "COIMBATORE",
    "Name": "Peelamedu MVKM Trust",
    "CenterNumber": "154",
    "long": "0",
    "lat": "0",
    "Address": "239/94, LIG II, ARAVIND NIVAS, Gandhi Managar, Peelamedu (Post), Coimbatore - 641 004."
  },
  {
    "Continent": "India",
    "Country": "India",
    "State": "TAMILNADU",
    "City": "COIMBATORE",
    "Name": "Periya Naicken Palayam MVKM",
    "CenterNumber": "49",
    "long": "0",
    "lat": "0",
    "Address": "No.57, Arivuthirukoil Veedhi, Ananda Nagar, S.R.V.K.(Po), Coimbatore - 641 020."
  },
  {
    "Continent": "India",
    "Country": "India",
    "State": "TAMILNADU",
    "City": "COIMBATORE",
    "Name": "Pollachi MVKM Trust",
    "CenterNumber": "133",
    "long": "0",
    "lat": "0",
    "Address": "Dr.Sankunni Memorial Hospital Complex, East Gate, 17/36, Palakkad Road, Pollachi - 642 001."
  },
  {
    "Continent": "India",
    "Country": "India",
    "State": "TAMILNADU",
    "City": "COIMBATORE",
    "Name": "Sirumugai MVKM Trust",
    "CenterNumber": "216",
    "long": "0",
    "lat": "0",
    "Address": "C/o. 42/25.I, Jeevan Nagar, Sirumugai, Mettupalayam, Coimbatore - 641302."
  },
  {
    "Continent": "India",
    "Country": "India",
    "State": "TAMILNADU",
    "City": "COIMBATORE",
    "Name": "Somanur Karugampalayam MVKM Trust",
    "CenterNumber": "358",
    "long": "0",
    "lat": "0",
    "Address": "Litercy Mission School ( Near ),  Ram Nagarm, Karugampalayam, Echeepatti Post, Tiruppur-Dt-641668."
  },
  {
    "Continent": "India",
    "Country": "India",
    "State": "TAMILNADU",
    "City": "COIMBATORE",
    "Name": "Somanur MVKM Trust",
    "CenterNumber": "147",
    "long": "0",
    "lat": "0",
    "Address": " 10/8, Mill Road, Somanur - 641668."
  },
  {
    "Continent": "India",
    "Country": "India",
    "State": "TAMILNADU",
    "City": "COIMBATORE",
    "Name": "Sulur MVKM Trust",
    "CenterNumber": "305",
    "long": "0",
    "lat": "0",
    "Address": "No.12/3 D, German Garden, Kalangal Pathai, Sulur - 641402."
  },
  {
    "Continent": "India",
    "Country": "India",
    "State": "TAMILNADU",
    "City": "COIMBATORE",
    "Name": "Uthagai MVKM Trust",
    "CenterNumber": "104",
    "long": "76.7019038",
    "lat": "11.4040343",
    "Address": "Santhosh clinical laboratory, 67/1152, U.M.C. Market Upstairs, Uthagamandalam - 643001."
  },
  {
    "Continent": "India",
    "Country": "India",
    "State": "TAMILNADU",
    "City": "COIMBATORE",
    "Name": "Veeriyampalayam MVKM Trust",
    "CenterNumber": "423",
    "long": "0",
    "lat": "0",
    "Address": "36, Maharaja Nagar, Nehru Nagar West, Kalapatti Post, Coimbatore 641 048."
  },
  {
    "Continent": "India",
    "Country": "India",
    "State": "TAMILNADU",
    "City": "CUDDALORE",
    "Name": "Bhuvanagiri MVKM Trust",
    "CenterNumber": "390",
    "long": "79.6530174",
    "lat": "11.4459041",
    "Address": "25D-3/NA, Bismi Complex, Bhuvanagiri 608 602, Cuddalore Dist, Cuddalore Dist."
  },
  {
    "Continent": "India",
    "Country": "India",
    "State": "TAMILNADU",
    "City": "CUDDALORE",
    "Name": "Chidambaram MVKM Trust",
    "CenterNumber": "144",
    "long": "80.1282852",
    "lat": "13.1237533",
    "Address": "8, Melaveethi, (Near Kanchi Thotti Bus Stand), Chidambaram - 608001."
  },
  {
    "Continent": "India",
    "Country": "India",
    "State": "TAMILNADU",
    "City": "CUDDALORE",
    "Name": "Chidambaram-Thiruchitrambalam MVKM Trust",
    "CenterNumber": "476",
    "long": "0",
    "lat": "0",
    "Address": "318, South First Cross Street, Marriyappa Nagar, Annamalai Nagar Post, Chidambaram 608 002."
  },
  {
    "Continent": "India",
    "Country": "India",
    "State": "TAMILNADU",
    "City": "CUDDALORE",
    "Name": "Cuddalore MVKM Trust",
    "CenterNumber": "unknown",
    "long": "79.7447204",
    "lat": "11.7644507",
    "Address": "3/9, Deepan Nagar, Semmandalam, Cuddalore - 607001"
  },
  {
    "Continent": "India",
    "Country": "India",
    "State": "TAMILNADU",
    "City": "CUDDALORE",
    "Name": "Manjakuppam MVKM Trust",
    "CenterNumber": "411",
    "long": "79.760077",
    "lat": "11.7631811",
    "Address": "No.10-D, Chinnappan Street, Manjakuppam 607 001, Cudalore Dist."
  },
  {
    "Continent": "India",
    "Country": "India",
    "State": "TAMILNADU",
    "City": "CUDDALORE",
    "Name": "Neyveli MVKM Trust",
    "CenterNumber": "159",
    "long": "0",
    "lat": "0",
    "Address": "D-4, Moon Street, Block-19, Neyveli - 607 803."
  },
  {
    "Continent": "India",
    "Country": "India",
    "State": "TAMILNADU",
    "City": "CUDDALORE",
    "Name": "Panruti MVKM Trust",
    "CenterNumber": "393",
    "long": "0",
    "lat": "0",
    "Address": "2/48A, 2nd Cross Street, Police Line, Kamaraj Nagar, Panruti 607 106."
  },
  {
    "Continent": "India",
    "Country": "India",
    "State": "TAMILNADU",
    "City": "CUDDALORE",
    "Name": "Thirupathiripuliyur MVKM Trust",
    "CenterNumber": "297",
    "long": "79.7516783",
    "lat": "11.7373813",
    "Address": " No.31/28, Kurunji St, Siva Nagar, Vandipalayam Road,Cuddalore - 607004."
  },
  {
    "Continent": "India",
    "Country": "India",
    "State": "TAMILNADU",
    "City": "CUDDALORE",
    "Name": "Vadalur MVKM Trust",
    "CenterNumber": "385",
    "long": "78.422916",
    "lat": "10.9608336",
    "Address": "9C, Murugan Koil Street, Abathranapuram, Vadalur 607 303, Cuddalore Dist."
  },
  {
    "Continent": "India",
    "Country": "India",
    "State": "TAMILNADU",
    "City": "CUDDALORE",
    "Name": "Viruthachalam  MVKM Trust",
    "CenterNumber": "48",
    "long": "0",
    "lat": "0",
    "Address": "Pazhampathai Street, Pennadam Post, Titakudi T.K., Cuddalore Dist 606 105."
  },
  {
    "Continent": "India",
    "Country": "India",
    "State": "TAMILNADU",
    "City": "CUDDALORE",
    "Name": "Vriddhachalam Nagar Mvkm Trust",
    "CenterNumber": "336",
    "long": "79.3251583",
    "lat": "11.5195875",
    "Address": "10/88, Mariamman Koil Street, Pudupet, Vriddhachalam, Cuddalore Dist."
  },
  {
    "Continent": "India",
    "Country": "India",
    "State": "TAMILNADU",
    "City": "DHARMAPURI",
    "Name": "Dharmapuri Bharathipuram MVKM Trust",
    "CenterNumber": "304",
    "long": "78.13623277",
    "lat": "12.1065271",
    "Address": "66 Feet Road, (Near Tamil Nadu, Warehousing Corporation Limited), Dharmapuri 636 705."
  },
  {
    "Continent": "India",
    "Country": "India",
    "State": "TAMILNADU",
    "City": "DHARMAPURI",
    "Name": "Dharmapuri MVKM Trust",
    "CenterNumber": "69",
    "long": "78.1361409",
    "lat": "12.1065271",
    "Address": " No.1 - J, Vasugounder St, No.1 - J, Vasugounder St,"
  },
  {
    "Continent": "India",
    "Country": "India",
    "State": "TAMILNADU",
    "City": "DHARMAPURI",
    "Name": "Dharmapuri South MVKM Trust",
    "CenterNumber": "459",
    "long": "78.1528497",
    "lat": "12.1153472",
    "Address": "5-B, 4th Street, Bharathipuram, Dharmapuri 636 705."
  },
  {
    "Continent": "India",
    "Country": "India",
    "State": "TAMILNADU",
    "City": "DHARMAPURI",
    "Name": "Marandahalli MVKM Trust",
    "CenterNumber": "243",
    "long": "77.9852853",
    "lat": "12.3874801",
    "Address": "Malar Dental Clinic,  Main Road, Marandahalli,  Dharmapuri Dt - 636806. Papparapatti Post  636 809."
  },
  {
    "Continent": "India",
    "Country": "India",
    "State": "TAMILNADU",
    "City": "DHARMAPURI",
    "Name": "Palacode MVKM Trust",
    "CenterNumber": "366",
    "long": "78.1248736",
    "lat": "12.0838852",
    "Address": "No.507/655, Main Road, Palacode - 636808, Dharmapauri Dt."
  },
  {
    "Continent": "India",
    "Country": "India",
    "State": "TAMILNADU",
    "City": "DHARMAPURI",
    "Name": "Papparapatti MVKM Trust",
    "CenterNumber": "258",
    "long": "78.055207",
    "lat": "12.2087989",
    "Address": "C/o.A.Devarajan, Master In-Charge, K.P. Ramasamy Mudhali Street, Pennagaram T.K., Dharmapuri Dist."
  },
  {
    "Continent": "India",
    "Country": "India",
    "State": "TAMILNADU",
    "City": "DINDIGUL",
    "Name": "Batlagundu MVKM Trust",
    "CenterNumber": "351",
    "long": "78.1193823",
    "lat": "9.9211936",
    "Address": "5.6.34 B, Annai Illam, Bharathiyar St, Madurai Main Road, Batlagundu, Dindigul Dt - 624202."
  },
  {
    "Continent": "India",
    "Country": "India",
    "State": "TAMILNADU",
    "City": "DINDIGUL",
    "Name": "Chinnalapatti MVKM Trust",
    "CenterNumber": "454",
    "long": "77.9228416",
    "lat": "10.2890442",
    "Address": "V.P.N. Street, Keelakotai,  Chinnalapatti 624 301."
  },
  {
    "Continent": "India",
    "Country": "India",
    "State": "TAMILNADU",
    "City": "DINDIGUL",
    "Name": "Dindigul MVKM Trust",
    "CenterNumber": "9",
    "long": "77.96824573",
    "lat": "10.397014",
    "Address": "No.2/428, Vethathiri Nagar,  Collectorate (PO), Dindigul - 624004."
  },
  {
    "Continent": "India",
    "Country": "India",
    "State": "TAMILNADU",
    "City": "DINDIGUL",
    "Name": "Nilakkottai  MVKM Trust",
    "CenterNumber": "433",
    "long": "77.8677011",
    "lat": "10.2112577",
    "Address": "No.12-6-5/C/2, Katcheri Street, Gandhi Nagar, Nilakkottai 624 208."
  },
  {
    "Continent": "India",
    "Country": "India",
    "State": "TAMILNADU",
    "City": "DINDIGUL",
    "Name": "Oddanchatram MVKM Trust",
    "CenterNumber": "309",
    "long": "77.9271895",
    "lat": "10.5246647",
    "Address": "997, Arulagam, Dharapuram Road, Oddanchatram  624 619."
  },
  {
    "Continent": "India",
    "Country": "India",
    "State": "TAMILNADU",
    "City": "DINDIGUL",
    "Name": "Palani MVKM Trust",
    "CenterNumber": "51",
    "long": "77.5161356",
    "lat": "10.4500374",
    "Address": "Uma Fancy Store, 8, Periyakadai Veedhi, Palani - 624601. Ph:04545 - 245600,"
  },
  {
    "Continent": "India",
    "Country": "India",
    "State": "TAMILNADU",
    "City": "ERODE",
    "Name": "AMMANKOVIL MVKM Trust",
    "CenterNumber": "unknown",
    "long": "0",
    "lat": "0",
    "Address": "MMANKOVIL THAVAMAIYAM, Arivuthirukoil, Ammankoil puthur - Po, Sivagiri - via - 638109"
  },
  {
    "Continent": "India",
    "Country": "India",
    "State": "TAMILNADU",
    "City": "ERODE",
    "Name": "Ammapet MVKM Trust",
    "CenterNumber": "185",
    "long": "77.7409162",
    "lat": "11.6213431",
    "Address": "249, Mettur Main Road, Chithar, Kasari Mangalam (Post),  Bhavani T.K, Erode Dt.  638 311."
  },
  {
    "Continent": "India",
    "Country": "India",
    "State": "TAMILNADU",
    "City": "ERODE",
    "Name": "Anthiyur MVKM Trust,(",
    "CenterNumber": "230",
    "long": "0",
    "lat": "0",
    "Address": "4, Indira Veedhi, Thavittupalayam, Anthiyur - 638501."
  },
  {
    "Continent": "India",
    "Country": "India",
    "State": "TAMILNADU",
    "City": "ERODE",
    "Name": "Bhavani MVKM Trust",
    "CenterNumber": "98",
    "long": "77.8007853",
    "lat": "11.7862533",
    "Address": "229D, Anna Nagar, Bhavani  638 301. Erode Dist."
  },
  {
    "Continent": "India",
    "Country": "India",
    "State": "TAMILNADU",
    "City": "ERODE",
    "Name": "Chennimalai MVKM Trust",
    "CenterNumber": "232",
    "long": "77.5963271",
    "lat": "11.1627122",
    "Address": "C/o.A/N.M.P.Soundirarajan, Secretary, Selvam Fabrics, 2, Manimegalai St, Oothukuli Road, Chennimalai - 51."
  },
  {
    "Continent": "India",
    "Country": "India",
    "State": "TAMILNADU",
    "City": "ERODE",
    "Name": "Erode MVKM Trust",
    "CenterNumber": "18",
    "long": "77.7244626",
    "lat": "11.33282",
    "Address": "No.66, Periyar Nagar 9th Street, Erode - 638 001."
  },
  {
    "Continent": "India",
    "Country": "India",
    "State": "TAMILNADU",
    "City": "ERODE",
    "Name": "Gopichettipalayam MVKM Trust",
    "CenterNumber": "292",
    "long": "77.4357739",
    "lat": "11.4673663",
    "Address": "No.9/49, LIC Colony, New Hospital St, Gopichettipalayam, Erode - 638452."
  },
  {
    "Continent": "India",
    "Country": "India",
    "State": "TAMILNADU",
    "City": "ERODE",
    "Name": "Karur MVKM Trust",
    "CenterNumber": "187",
    "long": "0",
    "lat": "0",
    "Address": "No.142, LGB Nagar, Karur - 639002."
  },
  {
    "Continent": "India",
    "Country": "India",
    "State": "TAMILNADU",
    "City": "ERODE",
    "Name": "Kodumudi MVKM Trust",
    "CenterNumber": "355",
    "long": "77.8861655",
    "lat": "11.0739022",
    "Address": "Near New Bus Stand, Kodumudi (Post) 638 151, Erode Dist."
  },
  {
    "Continent": "India",
    "Country": "India",
    "State": "TAMILNADU",
    "City": "ERODE",
    "Name": "Komarapalayam MVKM Trust",
    "CenterNumber": "160",
    "long": "0",
    "lat": "0",
    "Address": "45/1, Maharishi Nagar, Ayyan Thottam, Komarapalayam 638 183, Namakkal Dist."
  },
  {
    "Continent": "India",
    "Country": "India",
    "State": "TAMILNADU",
    "City": "ERODE",
    "Name": "MODAKKURICHI MVKM Trust",
    "CenterNumber": "unknown",
    "long": "0",
    "lat": "0",
    "Address": "MODAKKURICHI THAVAMAIYAM Near Kariyakaliamman kovil, Modakkurichi - Po, Erode - 638104."
  },
  {
    "Continent": "India",
    "Country": "India",
    "State": "TAMILNADU",
    "City": "ERODE",
    "Name": "Nedungoor MVKM Trust",
    "CenterNumber": "446",
    "long": "78.0800915",
    "lat": "10.95",
    "Address": "5/50, Poomandampalayam, Nedungoor Post 639 111, Karur Dist."
  },
  {
    "Continent": "India",
    "Country": "India",
    "State": "TAMILNADU",
    "City": "ERODE",
    "Name": "Pallipalayam MVKM Trust",
    "CenterNumber": "318",
    "long": "77.7538955",
    "lat": "11.3578374",
    "Address": "Vethathiri Nagar, Near Krishnaveni Kalyana Mandapam, Paper Mill Road, Pallipalayam 638 006."
  },
  {
    "Continent": "India",
    "Country": "India",
    "State": "TAMILNADU",
    "City": "ERODE",
    "Name": "PARAMATHI MVKM Trust",
    "CenterNumber": "unknown",
    "long": "0",
    "lat": "0",
    "Address": "PARAMATHI ARIVUTHIRUKOIL, Near Mariamman kovil, K. Paramathi, Karur - 639111."
  },
  {
    "Continent": "India",
    "Country": "India",
    "State": "TAMILNADU",
    "City": "ERODE",
    "Name": "Perundurai MVKM Trust",
    "CenterNumber": "341",
    "long": "77.6215142",
    "lat": "11.293821",
    "Address": "No.68, Krithigai Complex, Kanchikoil Road, Perundurai - 638052."
  },
  {
    "Continent": "India",
    "Country": "India",
    "State": "TAMILNADU",
    "City": "ERODE",
    "Name": "POOLAMPATTI SKY CENTER",
    "CenterNumber": "unknown",
    "long": "0",
    "lat": "0",
    "Address": "OOLAMPATTI THAVAMAIYAM, Near Mariamman Kovil, Edappadi - Tk."
  },
  {
    "Continent": "India",
    "Country": "India",
    "State": "TAMILNADU",
    "City": "ERODE",
    "Name": "Sankakiri MVKM Trust",
    "CenterNumber": "246",
    "long": "0",
    "lat": "0",
    "Address": "Karumpayiram Swami Koil Street, V.N.Palayam, Sankakiri  637 301."
  },
  {
    "Continent": "India",
    "Country": "India",
    "State": "TAMILNADU",
    "City": "ERODE",
    "Name": "Shree Gurukulam MVKM Trust",
    "CenterNumber": "378",
    "long": "77.4063625",
    "lat": "11.4570383",
    "Address": "Moolavaikkal, Karattadipalayam (Post), Gobichettipalayam 638 453, Erode Dist."
  },
  {
    "Continent": "India",
    "Country": "India",
    "State": "TAMILNADU",
    "City": "ERODE",
    "Name": "Sivagiri MVKM Trust",
    "CenterNumber": "286",
    "long": "77.7846452",
    "lat": "11.1176205",
    "Address": "No.6, Bharathi Street, Sivagiri  638 109. Erode Dt."
  },
  {
    "Continent": "India",
    "Country": "India",
    "State": "TAMILNADU",
    "City": "ERODE",
    "Name": "Thandampalayam MVKM Trust",
    "CenterNumber": "unknown",
    "long": "77.80009155",
    "lat": "11.12",
    "Address": "A/N.T.K. VATCHARAVELU Managing Trustee, 107/67, Main Raod, Thandampalayam (PO), Sivagiri - 638109. Erode Dt."
  },
  {
    "Continent": "India",
    "Country": "India",
    "State": "TAMILNADU",
    "City": "ERODE",
    "Name": "Thuckanaickanpalayam MVKM",
    "CenterNumber": "93",
    "long": "77.38699",
    "lat": "11.5070177",
    "Address": "No.66, Mariamman Koil Street, T.N.Palayam, Erode - 638 506."
  },
  {
    "Continent": "India",
    "Country": "India",
    "State": "TAMILNADU",
    "City": "ERODE",
    "Name": "Tiruchengode MVKM Trust",
    "CenterNumber": "124",
    "long": "77.8859968",
    "lat": "11.3639364",
    "Address": "26/3, Vazhga Valamudan Illam, Malaisuthi Road, Valaraigate,Karattupalayam, Sirumolani (Post),Tiruchengode - 637 209."
  },
  {
    "Continent": "India",
    "Country": "India",
    "State": "TAMILNADU",
    "City": "ERODE",
    "Name": "Tiruchengode Vidhyaa Vikas MVKM Trust",
    "CenterNumber": "320",
    "long": "77.3123396",
    "lat": "11.0924648",
    "Address": "No.4/51, Unjani Post, Kumaramangalam, Tiruchengode TK, Namakkal Dt - 637205."
  },
  {
    "Continent": "India",
    "Country": "India",
    "State": "TAMILNADU",
    "City": "ERODE",
    "Name": "Vallipuram Grama MVKM Trust",
    "CenterNumber": "429",
    "long": "0",
    "lat": "0",
    "Address": "6/9, Kovil pudur, Va. Kurukkam Palayam, Sivagiri 638 109, Erode Dist."
  },
  {
    "Continent": "India",
    "Country": "India",
    "State": "TAMILNADU",
    "City": "ERODE",
    "Name": "Vellode MVKM Trust",
    "CenterNumber": "400",
    "long": "77.7311167",
    "lat": "11.3381465",
    "Address": "NO.465, Dharumar Nagar, Valarmathi Thirumana Mandapa Street, V.Vellode Post 638 112, Erode Dist."
  },
  {
    "Continent": "India",
    "Country": "India",
    "State": "TAMILNADU",
    "City": "HOSUR",
    "Name": "Hosur MVKM Trust",
    "CenterNumber": "106",
    "long": "77.8145956",
    "lat": "12.7039644",
    "Address": "No.30, Vethathiri Veedhi, Amman Nagar, Near V.J.Kalyana Mahal, Thally Road, Hosur 635109. Krishnagiri Dt."
  },
  {
    "Continent": "India",
    "Country": "India",
    "State": "TAMILNADU",
    "City": "HOSUR",
    "Name": "Kaveripattinam MVKM Trust",
    "CenterNumber": "218",
    "long": "78.2174435",
    "lat": "12.4214652",
    "Address": "No.9/182, 1 st Cross Street, Thomson pettai, Kaveripattinam - 635112."
  },
  {
    "Continent": "India",
    "Country": "India",
    "State": "TAMILNADU",
    "City": "HOSUR",
    "Name": "Krishnagiri MVKM Trust",
    "CenterNumber": "211",
    "long": "78.2146607",
    "lat": "12.5283577",
    "Address": "No.43/55, 1st Cross, Jakkappan Nagar, Krishnagiri - 635 001."
  },
  {
    "Continent": "India",
    "Country": "India",
    "State": "TAMILNADU",
    "City": "KANCHEEPURAM",
    "Name": "Adambakkam Balakrishnapuram MVKM",
    "CenterNumber": "325",
    "long": "0",
    "lat": "0",
    "Address": "1367, First Floor, MIG, TNHB Colony, Sithalapakkam, Chennai 600 126."
  },
  {
    "Continent": "India",
    "Country": "India",
    "State": "TAMILNADU",
    "City": "KANCHEEPURAM",
    "Name": "Adambakkam MVKM Trust",
    "CenterNumber": "129",
    "long": "0",
    "lat": "0",
    "Address": "No.6/34, East Vellalar 1st St, Universal Eng Complex, Adambakkam, Chennai - 600088."
  },
  {
    "Continent": "India",
    "Country": "India",
    "State": "TAMILNADU",
    "City": "KANCHEEPURAM",
    "Name": "Alandur MVKM Trust",
    "CenterNumber": "419",
    "long": "80.2006371",
    "lat": "12.9974873",
    "Address": "Old No.40, New No.34, Madhavapuram East Street, Alandur, Chennai - 600 016."
  },
  {
    "Continent": "India",
    "Country": "India",
    "State": "TAMILNADU",
    "City": "KANCHEEPURAM",
    "Name": "ALANDUR VEDHA LADIES MVKM TRUST",
    "CenterNumber": "unknown",
    "long": "0",
    "lat": "0",
    "Address": "F-3, 1st Floor, Jansi Gokul Apts, No-15/7, Jal Street, Alandhur, Chennai - 600 016.\\r\\nPhone : 9841416123."
  },
  {
    "Continent": "India",
    "Country": "India",
    "State": "TAMILNADU",
    "City": "KANCHEEPURAM",
    "Name": "Chengalpattu MVKM Trust",
    "CenterNumber": "415",
    "long": "79.984936",
    "lat": "12.6593927",
    "Address": "No.15/1, Gandeepan Street, Chengalpet 603 001."
  },
  {
    "Continent": "India",
    "Country": "India",
    "State": "TAMILNADU",
    "City": "KANCHEEPURAM",
    "Name": "Chinna Kancheepuram Womens MVKM Trust",
    "CenterNumber": "498",
    "long": "0",
    "lat": "0",
    "Address": "32B, Narayanapalayam Street, Chinna Kancheepuram 631 501."
  },
  {
    "Continent": "India",
    "Country": "India",
    "State": "TAMILNADU",
    "City": "KANCHEEPURAM",
    "Name": "Chrompet MVKM Trust",
    "CenterNumber": "41",
    "long": "0",
    "lat": "0",
    "Address": "No.23/11, Hasthinapuram Main Rd, Nehru Nagar, Chrompet, Chennai-44."
  },
  {
    "Continent": "India",
    "Country": "India",
    "State": "TAMILNADU",
    "City": "KANCHEEPURAM",
    "Name": "Chrompet Radha Nagar MVKM Trust",
    "CenterNumber": "360",
    "long": "0",
    "lat": "0",
    "Address": " B-1, Vinayagam Apartments, No.7, Elumalai Street, Radha Nagar, Chrompet, Chennai - 600044."
  },
  {
    "Continent": "India",
    "Country": "India",
    "State": "TAMILNADU",
    "City": "KANCHEEPURAM",
    "Name": "Chrompet Umayalpuram MVKM Trust",
    "CenterNumber": "270",
    "long": "80.1909588",
    "lat": "12.9822107",
    "Address": "Plot No.9, Athirai Street,  Umayalpuram, Chromepet, Chennai - 600 044."
  },
  {
    "Continent": "India",
    "Country": "India",
    "State": "TAMILNADU",
    "City": "KANCHEEPURAM",
    "Name": "East Tambaram MVKM Trust",
    "CenterNumber": "416",
    "long": "0",
    "lat": "0",
    "Address": "3B, 1st Street, Thenugambal Nagar, Madambakkam, Chennai - 600 126."
  },
  {
    "Continent": "India",
    "Country": "India",
    "State": "TAMILNADU",
    "City": "KANCHEEPURAM",
    "Name": "East Tambaram Thirumazhisai Street MVKM Trust",
    "CenterNumber": "416",
    "long": "0",
    "lat": "0",
    "Address": "51/25, Muthuramalingar Street, East Tambaram, Chennai 600 059."
  },
  {
    "Continent": "India",
    "Country": "India",
    "State": "TAMILNADU",
    "City": "KANCHEEPURAM",
    "Name": "Guduvanchery MVKM Trust",
    "CenterNumber": "25",
    "long": "80.06071964",
    "lat": "12.8448776",
    "Address": "No.103, G.S.T.Road, Guduvanchery - 603202."
  },
  {
    "Continent": "India",
    "Country": "India",
    "State": "TAMILNADU",
    "City": "KANCHEEPURAM",
    "Name": "Hasthinapuram MVKM Trust",
    "CenterNumber": "397",
    "long": "80.1573604",
    "lat": "12.9056464",
    "Address": "Plot No.10, Room No.25, Maruthi Nagar, Hasthinapuram,  Chennai 600 064."
  },
  {
    "Continent": "India",
    "Country": "India",
    "State": "TAMILNADU",
    "City": "KANCHEEPURAM",
    "Name": "Kalpakkam MVKM Trust",
    "CenterNumber": "79",
    "long": "0",
    "lat": "0",
    "Address": "802, 8th Floor, Thamirabarani,  DAE Township, Anupuram - 603 127."
  },
  {
    "Continent": "India",
    "Country": "India",
    "State": "TAMILNADU",
    "City": "KANCHEEPURAM",
    "Name": "Kanchipuram MVKM Trust",
    "CenterNumber": "137",
    "long": "79.7036402",
    "lat": "12.8341735",
    "Address": "54,Adhiyamaan Nagar, Kalainar Salai, Sevilimedu Post, Kanchipuram - 631 502."
  },
  {
    "Continent": "India",
    "Country": "India",
    "State": "TAMILNADU",
    "City": "KANCHEEPURAM",
    "Name": "Kanchipuram MVKM Trust",
    "CenterNumber": "137",
    "long": "79.7036402",
    "lat": "12.8341735",
    "Address": "54,Adhiyamaan Nagar, Kalainar Salai, Sevilimedu Post, Kanchipuram - 631 502."
  },
  {
    "Continent": "India",
    "Country": "India",
    "State": "TAMILNADU",
    "City": "KANCHEEPURAM",
    "Name": "Karumbakkam MVKM Trust",
    "CenterNumber": "489",
    "long": "79.57537805",
    "lat": "10.4712297",
    "Address": "Karumbakkam Arivuthirukoil Street, Kottaikadu Post, Cheyur T.K., Kancheepuram Dist."
  },
  {
    "Continent": "India",
    "Country": "India",
    "State": "TAMILNADU",
    "City": "KANCHEEPURAM",
    "Name": "Keelakkattalai MVKM Trust",
    "CenterNumber": "409",
    "long": "80.1810029",
    "lat": "12.956592",
    "Address": "No.8, Kalaivani Street, Keelakkattalai, Chennai  600 117."
  },
  {
    "Continent": "India",
    "Country": "India",
    "State": "TAMILNADU",
    "City": "KANCHEEPURAM",
    "Name": "Kunrathur  MVKM Trust",
    "CenterNumber": "240",
    "long": "80.0972003",
    "lat": "12.997668",
    "Address": "No.26, Muslim Street, Kunrathur, Chennai - 600069."
  },
  {
    "Continent": "India",
    "Country": "India",
    "State": "TAMILNADU",
    "City": "KANCHEEPURAM",
    "Name": "Madambakkam Mvkm Trust",
    "CenterNumber": "330",
    "long": "80.1521428",
    "lat": "12.9155116",
    "Address": "No.6, Ambika Nagar Extn, Sudarsana Nagar 4th Street,  Madambakkam, Chennai - 600073."
  },
  {
    "Continent": "India",
    "Country": "India",
    "State": "TAMILNADU",
    "City": "KANCHEEPURAM",
    "Name": "Madipakkam Thilagar Avenue MVKM",
    "CenterNumber": "unknown",
    "long": "80.1999234",
    "lat": "12.967373",
    "Address": "P.No.152. A, 6th Cross St, Thilagar Avenue, Balaiah Garden,  Madipakkam, Chennai - 600091."
  },
  {
    "Continent": "India",
    "Country": "India",
    "State": "TAMILNADU",
    "City": "KANCHEEPURAM",
    "Name": "Mangadu MVKM Trust",
    "CenterNumber": "315",
    "long": "80.1076117",
    "lat": "13.0321616",
    "Address": "Plot No.4, 2nd Cross Sundaresan St., Sri Chakra Nagar, Mangadu, Chennai  602 101."
  },
  {
    "Continent": "India",
    "Country": "India",
    "State": "TAMILNADU",
    "City": "KANCHEEPURAM",
    "Name": "Medavakkam MVKM Trust",
    "CenterNumber": "330",
    "long": "80.1923489",
    "lat": "12.9171427",
    "Address": "No.11, 1st Cross Street, Chitty Babu Nagar, Pallikaranai, Chennai - 600 100."
  },
  {
    "Continent": "India",
    "Country": "India",
    "State": "TAMILNADU",
    "City": "KANCHEEPURAM",
    "Name": "Naickenpet MVKM Trust",
    "CenterNumber": "428",
    "long": "79.7683262",
    "lat": "12.8070632",
    "Address": " No.83, Big Street, Naickenpet, Kancheepuram  631 601."
  },
  {
    "Continent": "India",
    "Country": "India",
    "State": "TAMILNADU",
    "City": "KANCHEEPURAM",
    "Name": "Old Pallavaram MVKM Trust",
    "CenterNumber": "496",
    "long": "80.1603018",
    "lat": "12.9605383",
    "Address": "Flat B/1, Block-2, Jains Green, 91, Dharga Road, Zamin Pallavaram, Chennai 600 043."
  },
  {
    "Continent": "India",
    "Country": "India",
    "State": "TAMILNADU",
    "City": "KANCHEEPURAM",
    "Name": "Padmavathy Nagar Ladies MVKM",
    "CenterNumber": "348",
    "long": "80.1593833",
    "lat": "12.9045319",
    "Address": "No.65/3, Ashthalakshmi Apartment, Alamelupuram, 2nd Street, Madambakkam, Chennai - 600 126."
  },
  {
    "Continent": "India",
    "Country": "India",
    "State": "TAMILNADU",
    "City": "KANCHEEPURAM",
    "Name": "Pammal Muthamizh Nagar MVKM Trust",
    "CenterNumber": "474",
    "long": "0",
    "lat": "0",
    "Address": "No.9, Padmanaban Street, Krishna Nagar,Pammal, Chennai 600 075."
  },
  {
    "Continent": "India",
    "Country": "India",
    "State": "TAMILNADU",
    "City": "KANCHEEPURAM",
    "Name": "Pazhavanthangal MVKM Trust",
    "CenterNumber": "255",
    "long": "80.2694467",
    "lat": "13.0527653",
    "Address": "No.7, Venkatachalam street, Pazhavanthangal, Chennai - 600114."
  },
  {
    "Continent": "India",
    "Country": "India",
    "State": "TAMILNADU",
    "City": "KANCHEEPURAM",
    "Name": "PILLAIPAKKAM (SUB CENTRE)",
    "CenterNumber": "unknown",
    "long": "0",
    "lat": "0",
    "Address": "PILLAIPAKKAM POST SRIPERUMPUTHUR TK KANCHIPURAM"
  },
  {
    "Continent": "India",
    "Country": "India",
    "State": "TAMILNADU",
    "City": "KANCHEEPURAM",
    "Name": "Sempakkam MVKM Trust",
    "CenterNumber": "403",
    "long": "0",
    "lat": "0",
    "Address": " No.4, Maniammai 2nd Cross Street, VGP Madeena Nagar, Rajakilpakkam, Chennai 600 073."
  },
  {
    "Continent": "India",
    "Country": "India",
    "State": "TAMILNADU",
    "City": "KANCHEEPURAM",
    "Name": "Tambaram MVKM Trust",
    "CenterNumber": "375",
    "long": "80.106839",
    "lat": "12.9247314",
    "Address": "Sri Ramana Vidhayalaya Matriculation School, No.6, Kalyan Nagar Main Road, Mudichur Road, Chennai 600 045."
  },
  {
    "Continent": "India",
    "Country": "India",
    "State": "TAMILNADU",
    "City": "KANCHEEPURAM",
    "Name": "Tambaram Sanatorium MVKM Trust",
    "CenterNumber": "7",
    "long": "0",
    "lat": "0",
    "Address": "N.No.254 (O.No207) Thambu Chetty St, Chennai - 600 001."
  },
  {
    "Continent": "India",
    "Country": "India",
    "State": "TAMILNADU",
    "City": "KANCHEEPURAM",
    "Name": "Thirukazhukundram MVKM Trust",
    "CenterNumber": "222",
    "long": "0",
    "lat": "0",
    "Address": "No.21, Kammalar Veedhi, Thirukkazhukkundram, Kanchipuram - 603109."
  },
  {
    "Continent": "India",
    "Country": "India",
    "State": "TAMILNADU",
    "City": "KANCHEEPURAM",
    "Name": "Ullagaram MVKM Trust",
    "CenterNumber": "204",
    "long": "80.1959771",
    "lat": "12.9775419",
    "Address": "No.14, Sabapathy St, Narmatha Nagar, Ullagaram, Chennai  - 600091."
  },
  {
    "Continent": "India",
    "Country": "India",
    "State": "TAMILNADU",
    "City": "KANYAKUMARI",
    "Name": "Kumari Vadaseri MVKM Trust",
    "CenterNumber": "482",
    "long": "0",
    "lat": "0",
    "Address": "No.68/14, Dr.Nagarani Clinic, Puliyavilai Street, Vadaseri, Nagercoil 629 001, Kanyakumari Dist."
  },
  {
    "Continent": "India",
    "Country": "India",
    "State": "TAMILNADU",
    "City": "KANYAKUMARI",
    "Name": "Marthandam Mvkm Trust",
    "CenterNumber": "363",
    "long": "77.2218365",
    "lat": "8.3075307",
    "Address": "6-77, K.R.Medicals, Main Road, Marthandam - 629 165."
  },
  {
    "Continent": "India",
    "Country": "India",
    "State": "TAMILNADU",
    "City": "KANYAKUMARI",
    "Name": "Nagercoil MVKM Trust",
    "CenterNumber": "16",
    "long": "77.4332177",
    "lat": "8.1838932",
    "Address": "405/127, C.B.H.Road, Melakalumkady, Vadasery, Nagercoil - 629 001."
  },
  {
    "Continent": "India",
    "Country": "India",
    "State": "TAMILNADU",
    "City": "KANYAKUMARI",
    "Name": "Villukuri MVKM Trust",
    "CenterNumber": "472",
    "long": "0",
    "lat": "0",
    "Address": "4/154, Thendral Street, Pandarakadu, Villukuri Post 629 180. Kanniyakumari Dist."
  },
  {
    "Continent": "India",
    "Country": "India",
    "State": "TAMILNADU",
    "City": "KARUR",
    "Name": "Karur MVKM Trust",
    "CenterNumber": "187",
    "long": "0",
    "lat": "0",
    "Address": "No.142, LGB Nagar, Karur - 639002."
  },
  {
    "Continent": "India",
    "Country": "India",
    "State": "TAMILNADU",
    "City": "KARUR",
    "Name": "Kulithalai  MVKM Trust",
    "CenterNumber": "441",
    "long": "78.4227716",
    "lat": "10.9335904",
    "Address": "No.25-H, Theppakulam Street, Kulithalai 639 104, Karur Dist."
  },
  {
    "Continent": "India",
    "Country": "India",
    "State": "TAMILNADU",
    "City": "KARUR",
    "Name": "Nedungoor MVKM Trust",
    "CenterNumber": "446",
    "long": "78.0800915",
    "lat": "10.95",
    "Address": "5/50, Poomandampalayam, Nedungoor Post 639 111, Karur Dist."
  },
  {
    "Continent": "India",
    "Country": "India",
    "State": "TAMILNADU",
    "City": "KARUR",
    "Name": "Velayuthampalayam MVKM Trust",
    "CenterNumber": "439",
    "long": "77.71725582",
    "lat": "11.3410364",
    "Address": "63, Erode Salai, Velayuthampalayam Post, Karur Dist 639 117."
  },
  {
    "Continent": "India",
    "Country": "India",
    "State": "TAMILNADU",
    "City": "KUMBAKONAM",
    "Name": "Ammapet MVKM Trust",
    "CenterNumber": "282",
    "long": "77.7409162",
    "lat": "11.6213431",
    "Address": "66/4, Kothandaramasamy  Koil St, Ammapet (P.O), Papanasam (T.K)., Thanjavur - 614401."
  },
  {
    "Continent": "India",
    "Country": "India",
    "State": "TAMILNADU",
    "City": "KUMBAKONAM",
    "Name": "Jayankondam MVKM Trust",
    "CenterNumber": "2",
    "long": "79.3612652",
    "lat": "11.2143483",
    "Address": "Iyyanar Koil Campus, Iyyanar Koil Street, Chidambaram Road, Jayankondam 621 802"
  },
  {
    "Continent": "India",
    "Country": "India",
    "State": "TAMILNADU",
    "City": "KUMBAKONAM",
    "Name": "Karaikal MVKM Trust",
    "CenterNumber": "65",
    "long": "79.8464804",
    "lat": "10.9075513",
    "Address": "Arivuthirukoil, 5th Cross Street,  Extension, MMG Nagar, Karaikkal - 609 602."
  },
  {
    "Continent": "India",
    "Country": "India",
    "State": "TAMILNADU",
    "City": "KUMBAKONAM",
    "Name": "Kovilkandankudi MVKM Centre",
    "CenterNumber": "unknown",
    "long": "0",
    "lat": "0",
    "Address": "Temple of Consciousness, West Street, KOVILKANDANKUDI 609608, Nannilam Taluk, Thiruvarur District."
  },
  {
    "Continent": "India",
    "Country": "India",
    "State": "TAMILNADU",
    "City": "KUMBAKONAM",
    "Name": "Kumbakonam MVKM Trust",
    "CenterNumber": "64",
    "long": "79.7419238",
    "lat": "10.9412207",
    "Address": "No.47, Noor Nagar, Pidarikulam Road, Thiruvidaimarudoor Road, Kumbakonam-612 001."
  },
  {
    "Continent": "India",
    "Country": "India",
    "State": "TAMILNADU",
    "City": "KUMBAKONAM",
    "Name": "Manargudi MVKM Trust",
    "CenterNumber": "100",
    "long": "79.453512",
    "lat": "10.6606199",
    "Address": "Quality Furniture Palace, 114 - C, Periya Kadai St,  Kalki Building, Mannarkudi-614001."
  },
  {
    "Continent": "India",
    "Country": "India",
    "State": "TAMILNADU",
    "City": "KUMBAKONAM",
    "Name": "Mannargudi West MVKM Trust",
    "CenterNumber": "unknown",
    "long": "0",
    "lat": "0",
    "Address": "Temple of Consciousness, Gopalasamuthiram West Street, MANNARGUDI 614 001."
  },
  {
    "Continent": "India",
    "Country": "India",
    "State": "TAMILNADU",
    "City": "KUMBAKONAM",
    "Name": "Nagai MVKM Trust",
    "CenterNumber": "57",
    "long": "0",
    "lat": "0",
    "Address": "1,Sivan South, Madavalagam St,Velippalayam, Nagapattinam - 1."
  },
  {
    "Continent": "India",
    "Country": "India",
    "State": "TAMILNADU",
    "City": "KUMBAKONAM",
    "Name": "Nidamangalam MVKM Trust",
    "CenterNumber": "76",
    "long": "0",
    "lat": "0",
    "Address": "4A, Keela Street,  Nidamangalam - 614 404."
  },
  {
    "Continent": "India",
    "Country": "India",
    "State": "TAMILNADU",
    "City": "KUMBAKONAM",
    "Name": "Pattukottai MVKM Trust",
    "CenterNumber": "145",
    "long": "79.3095848",
    "lat": "10.4293863",
    "Address": "47/F-55, R.R. Illam, Venkidachalam Nagar, Aranthangi Road, Pattukkottai 614 601."
  },
  {
    "Continent": "India",
    "Country": "India",
    "State": "TAMILNADU",
    "City": "KUMBAKONAM",
    "Name": "Peravoorani MVKM Trust",
    "CenterNumber": "257",
    "long": "79.1031242",
    "lat": "10.2251867",
    "Address": "Arivuthirukoil, Puthu Road, Sathiyamoorthy Nagar, Peravoorani 614 804."
  },
  {
    "Continent": "India",
    "Country": "India",
    "State": "TAMILNADU",
    "City": "KUMBAKONAM",
    "Name": "Thiruvarur MVKM Trust",
    "CenterNumber": "298",
    "long": "79.5216644",
    "lat": "10.7173564",
    "Address": "7A-2, Javulikara Street, Thiruvarur 610 001."
  },
  {
    "Continent": "India",
    "Country": "India",
    "State": "TAMILNADU",
    "City": "KUMBAKONAM",
    "Name": "Thiruvarur MVKM Trust",
    "CenterNumber": "298",
    "long": "79.5216644",
    "lat": "10.7173564",
    "Address": "7A-2, Javulikara Street, Thiruvarur 610 001."
  },
  {
    "Continent": "India",
    "Country": "India",
    "State": "TAMILNADU",
    "City": "KUMBAKONAM",
    "Name": "Thuraiyur MVKM Centre",
    "CenterNumber": "unknown",
    "long": "0",
    "lat": "0",
    "Address": "Temple of Consciousness, Ayyanarkoil Street, THURAIYUR 614 904 Mela Ulur Post, Thanjavur District."
  },
  {
    "Continent": "India",
    "Country": "India",
    "State": "TAMILNADU",
    "City": "KUMBAKONAM",
    "Name": "Tiruthuraipoondi MVKM Trust",
    "CenterNumber": "60",
    "long": "79.6361748",
    "lat": "10.5251306",
    "Address": "569/1, Balraj Nagar, Mannai Salai, Tiruthuraipoondi - 614713."
  },
  {
    "Continent": "India",
    "Country": "India",
    "State": "TAMILNADU",
    "City": "KUMBAKONAM",
    "Name": "Vettaikaraniruppu MVKM Centre",
    "CenterNumber": "unknown",
    "long": "0",
    "lat": "0",
    "Address": "Temple of Consciousness, Sadaiyarkadu Road, VETTAIKARANIRUPPU 611 112, Kivalur Taluk, Nagapattinam District."
  },
  {
    "Continent": "India",
    "Country": "India",
    "State": "TAMILNADU",
    "City": "MADURAI",
    "Name": "Devakottai MVKM Trust",
    "CenterNumber": "215",
    "long": "78.8195429",
    "lat": "9.9463215",
    "Address": " No.74, Thiyagikal Road, Devakottai - 630302."
  },
  {
    "Continent": "India",
    "Country": "India",
    "State": "TAMILNADU",
    "City": "MADURAI",
    "Name": "K. Pudur MVKM Trust",
    "CenterNumber": "483",
    "long": "0",
    "lat": "0",
    "Address": "Gnana Kudil, No.11, E.M.G. Nagar,  2nd Street, 2nd Cross, K.Pudur, Madurai 625 007."
  },
  {
    "Continent": "India",
    "Country": "India",
    "State": "TAMILNADU",
    "City": "MADURAI",
    "Name": "Kamuthi MVKM Trust",
    "CenterNumber": "361",
    "long": "78.3643119",
    "lat": "9.4097291",
    "Address": " 4, Chayakara Street, Kamuthi - 623603, Ramanathapuram Dt."
  },
  {
    "Continent": "India",
    "Country": "India",
    "State": "TAMILNADU",
    "City": "MADURAI",
    "Name": "Madurai MVKM Trust",
    "CenterNumber": "4",
    "long": "0",
    "lat": "0",
    "Address": "24, Besant Road, Chokkikulam,  Madurai - 625 002."
  },
  {
    "Continent": "India",
    "Country": "India",
    "State": "TAMILNADU",
    "City": "MADURAI",
    "Name": "Madurai Nagar MVKM Trust",
    "CenterNumber": "66",
    "long": "78.12145",
    "lat": "9.92483",
    "Address": " 139, G.R. Complex, North Marath Street, Simmakkal, Madurai 625 001."
  },
  {
    "Continent": "India",
    "Country": "India",
    "State": "TAMILNADU",
    "City": "MADURAI",
    "Name": "Paramakudi MVKM Trust",
    "CenterNumber": "95",
    "long": "78.591",
    "lat": "9.544",
    "Address": "No.3/736, Mandhri Menon Street, Parmakudi - 623707."
  },
  {
    "Continent": "India",
    "Country": "India",
    "State": "TAMILNADU",
    "City": "MADURAI",
    "Name": "Thirumangalam MVKM Trust",
    "CenterNumber": "328",
    "long": "77.9881401",
    "lat": "9.8232884",
    "Address": "80/375, Usilai Road, Tirumangalam,  Madurai - 625706."
  },
  {
    "Continent": "India",
    "Country": "India",
    "State": "TAMILNADU",
    "City": "MADURAI",
    "Name": "Tirunagar MVKM Trust",
    "CenterNumber": "22",
    "long": "78.0523548",
    "lat": "9.8845116",
    "Address": "C/o.A/N.Ram gopal, Secretary, No.C.45, Brindavan Street, Thirunagar, Madurai - 625006."
  },
  {
    "Continent": "India",
    "Country": "India",
    "State": "TAMILNADU",
    "City": "MADURAI",
    "Name": "Tiruppattur MVKM Trust",
    "CenterNumber": "248",
    "long": "0",
    "lat": "0",
    "Address": "Lakshmi Nursing Home,  Madurai Road, Tiruppathur, Sivagangai - 630211."
  },
  {
    "Continent": "India",
    "Country": "India",
    "State": "TAMILNADU",
    "City": "MADURAI",
    "Name": "Usilampatti MVKM Trust",
    "CenterNumber": "291",
    "long": "77.7913234",
    "lat": "9.9614628",
    "Address": "Homeo Clinic, Nadan New St, Usilampatti, Madurai - 625532."
  },
  {
    "Continent": "India",
    "Country": "India",
    "State": "TAMILNADU",
    "City": "MADURAI",
    "Name": "Vadipatti MVKM Trust",
    "CenterNumber": "362",
    "long": "77.9610158",
    "lat": "10.0843179",
    "Address": " No.2-1-65, Mettuperumal Nagar, Vadipatti - 625218."
  },
  {
    "Continent": "India",
    "Country": "India",
    "State": "TAMILNADU",
    "City": "NAGAPATTINAM",
    "Name": "Mailaduthurai MVKM Trust",
    "CenterNumber": "74",
    "long": "79.6417893",
    "lat": "11.0986902",
    "Address": " C/o.54, A, Periya Saliya St, Koorainadu, Mailaduthurai - 1."
  },
  {
    "Continent": "India",
    "Country": "India",
    "State": "TAMILNADU",
    "City": "NAGAPATTINAM",
    "Name": "Sirkali MVKM Trust",
    "CenterNumber": "421",
    "long": "79.7346811",
    "lat": "11.2380137",
    "Address": " No.14, Thiyagaraja Nagar,  Sirkali Post - 609 110. Nagapattinam District."
  },
  {
    "Continent": "India",
    "Country": "India",
    "State": "TAMILNADU",
    "City": "NAMAKKAL",
    "Name": "Komarapalayam MVKM Trust",
    "CenterNumber": "160",
    "long": "0",
    "lat": "0",
    "Address": "45/1, Maharishi Nagar, Ayyan Thottam, Komarapalayam 638 183, Namakkal Dist."
  },
  {
    "Continent": "India",
    "Country": "India",
    "State": "TAMILNADU",
    "City": "NAMAKKAL",
    "Name": "Namakkal MVKM Trust",
    "CenterNumber": "58",
    "long": "0",
    "lat": "0",
    "Address": "No.11, Narasimar Sannadhi Street, Kottai, Namakkal - 637001."
  },
  {
    "Continent": "India",
    "Country": "India",
    "State": "TAMILNADU",
    "City": "NAMAKKAL",
    "Name": "Pallipalayam MVKM Trust",
    "CenterNumber": "318",
    "long": "77.7538955",
    "lat": "11.3578374",
    "Address": "Vethathiri Nagar, Near Krishnaveni Kalyana Mandapam, Paper Mill Road, Pallipalayam 638 006."
  },
  {
    "Continent": "India",
    "Country": "India",
    "State": "TAMILNADU",
    "City": "NAMAKKAL",
    "Name": "Rasipuram MVKM Trust",
    "CenterNumber": "178",
    "long": "78.1906417",
    "lat": "11.4545086",
    "Address": "M/s.Soundhars Vet Agencies, 1B, Kattur Kattu Kottai, 1B Kattur Road,  Rasipuram T.K., Namakkal Dist 637 408."
  },
  {
    "Continent": "India",
    "Country": "India",
    "State": "TAMILNADU",
    "City": "NAMAKKAL",
    "Name": "Sendamangalam MVKM Trust",
    "CenterNumber": "84",
    "long": "78.1677236",
    "lat": "11.2194391",
    "Address": " Vethathiri Nagar, Jangalapuram, Senthamangalam - 637 409. Nammakkal Dist."
  },
  {
    "Continent": "India",
    "Country": "India",
    "State": "TAMILNADU",
    "City": "NAMAKKAL",
    "Name": "Sendamangalam Vethaloga Vidhyalaya MVKM",
    "CenterNumber": "357",
    "long": "78.234844",
    "lat": "11.2801",
    "Address": "Vethaloga Vidhyalaya Matriculation Higher Secondary School,  Sendamangalam - 637409."
  },
  {
    "Continent": "India",
    "Country": "India",
    "State": "TAMILNADU",
    "City": "NAMAKKAL",
    "Name": "Tiruchengode MVKM Trust",
    "CenterNumber": "124",
    "long": "77.8859968",
    "lat": "11.3639364",
    "Address": "26/3, Vazhga Valamudan Illam, Malaisuthi Road, Valaraigate,Karattupalayam, Sirumolani (Post),Tiruchengode - 637 209."
  },
  {
    "Continent": "India",
    "Country": "India",
    "State": "TAMILNADU",
    "City": "NAMAKKAL",
    "Name": "Vennandur  MVKM Trust",
    "CenterNumber": "407",
    "long": "78.0105028",
    "lat": "11.1109717",
    "Address": "4/7B, Vettukadu, Vennandur, Namakkal Dist 637 505"
  },
  {
    "Continent": "India",
    "Country": "India",
    "State": "TAMILNADU",
    "City": "NILGIRIS",
    "Name": "Andipatti MVKM Trust",
    "CenterNumber": "391",
    "long": "77.47690272",
    "lat": "10.0103658",
    "Address": "33, Thiruvalluvar Colony, Jakkanpatti, Andipatti Post, Theni Dist. Pin: 625 512"
  },
  {
    "Continent": "India",
    "Country": "India",
    "State": "TAMILNADU",
    "City": "NILGIRIS",
    "Name": "Aruvankadu MVKM Trust",
    "CenterNumber": "110",
    "long": "0",
    "lat": "0",
    "Address": "No.10/155.B,  Vinayakar Koil St, Aruvankadu  P.O., The Nilgiris - 643202."
  },
  {
    "Continent": "India",
    "Country": "India",
    "State": "TAMILNADU",
    "City": "NILGIRIS",
    "Name": "Bodi Nayakanur MVKM Trust",
    "CenterNumber": "279",
    "long": "-111.933227",
    "lat": "33.495626",
    "Address": "Sri  Nivash, No. 141, Subbramaniar kovil North Street,  Bodi Nayakanur 625 513, Theni Dist."
  },
  {
    "Continent": "India",
    "Country": "India",
    "State": "TAMILNADU",
    "City": "NILGIRIS",
    "Name": "Chinnamanur MVKM Trust",
    "CenterNumber": "455",
    "long": "77.3827599",
    "lat": "9.8421616",
    "Address": "No.31, North Car Street, Chinnamanur 625 515, Theni Dist."
  },
  {
    "Continent": "India",
    "Country": "India",
    "State": "TAMILNADU",
    "City": "NILGIRIS",
    "Name": "Cumbam MVKM Trust",
    "CenterNumber": "234",
    "long": "77.2807423",
    "lat": "9.7344265",
    "Address": "No.516-C/10, Kumili Main Road, Cumbum - 625516."
  },
  {
    "Continent": "India",
    "Country": "India",
    "State": "TAMILNADU",
    "City": "NILGIRIS",
    "Name": "Gudalur MVKM Trust",
    "CenterNumber": "63",
    "long": "76.5372625",
    "lat": "11.5158296",
    "Address": "No.10/65, Kalyani Jewellary 1st Floor, Ooty - Mysore Main Road,  Gudalur, Nilagiri  643 212."
  },
  {
    "Continent": "India",
    "Country": "India",
    "State": "TAMILNADU",
    "City": "NILGIRIS",
    "Name": "Jegathala MVKM Trust",
    "CenterNumber": "288",
    "long": "76.7336521",
    "lat": "11.4916043",
    "Address": "No.4/233, Jegathala Villager & Post, The Nilgiris - 643 202."
  },
  {
    "Continent": "India",
    "Country": "India",
    "State": "TAMILNADU",
    "City": "NILGIRIS",
    "Name": "Kollapalli MVKM Trust",
    "CenterNumber": "162",
    "long": "76.3292754",
    "lat": "11.5251883",
    "Address": "No.6/119, 2,  Kolapalli Main Road, Kollapalli, Pandalur.T.K - 643253."
  },
  {
    "Continent": "India",
    "Country": "India",
    "State": "TAMILNADU",
    "City": "NILGIRIS",
    "Name": "Periyakulam MVKM Trust",
    "CenterNumber": "352",
    "long": "77.5378668",
    "lat": "10.1220232",
    "Address": "25/4, Kacheri Road, Near Theradi, Thenkarai, Periyakulam 625 601. Theni Dist."
  },
  {
    "Continent": "India",
    "Country": "India",
    "State": "TAMILNADU",
    "City": "NILGIRIS",
    "Name": "Theni MVKM Trust",
    "CenterNumber": "350",
    "long": "77.59465488",
    "lat": "12.9715987",
    "Address": "Theni Arivuthirukovil, 4th South Street, Penniquick Nagar, Thitta Salai, Theni - 625 531."
  },
  {
    "Continent": "India",
    "Country": "India",
    "State": "TAMILNADU",
    "City": "NILGIRIS",
    "Name": "Uthagai MVKM Trust",
    "CenterNumber": "104",
    "long": "76.7019038",
    "lat": "11.4040343",
    "Address": " Santhosh clinical laboratory, 67/1152, U.M.C. Market Upstairs, Uthagamandalam - 643001."
  },
  {
    "Continent": "India",
    "Country": "India",
    "State": "TAMILNADU",
    "City": "PUTHUKOTTAI",
    "Name": "Aranthangi MVKM Trust",
    "CenterNumber": "202",
    "long": "79.3122327",
    "lat": "10.4245778",
    "Address": "11C, L.N. Puram-1,  Aranthangi - 614 616."
  },
  {
    "Continent": "India",
    "Country": "India",
    "State": "TAMILNADU",
    "City": "PUTHUKOTTAI",
    "Name": "Manalmelkudi MVKM Trust",
    "CenterNumber": "231",
    "long": "78.9910186",
    "lat": "10.1712695",
    "Address": "No.1346, Jagadeshwar Koil St, Kulachiraiyar Nagar, Manamelkudi, Pudukkottai - 20."
  },
  {
    "Continent": "India",
    "Country": "India",
    "State": "TAMILNADU",
    "City": "PUTHUKOTTAI",
    "Name": "Pudukkottai SS PURAM MVKM TRUST",
    "CenterNumber": "unknown",
    "long": "0",
    "lat": "0",
    "Address": "FLAT NO: 18, SUBRAMANIAPURAM GOVT STAFF QUARTERS EXTN MACHUVADI PDK 622 005"
  },
  {
    "Continent": "India",
    "Country": "India",
    "State": "TAMILNADU",
    "City": "PUTHUKOTTAI",
    "Name": "Pudukkottai Vellaru  MVKM Trust",
    "CenterNumber": "252",
    "long": "78.8076353",
    "lat": "10.3870469",
    "Address": "No.21, Karpaga Nagar, Vattapatti Road, Rajagopalapuram Post, v"
  },
  {
    "Continent": "India",
    "Country": "India",
    "State": "TAMILNADU",
    "City": "PUTHUKOTTAI",
    "Name": "Pudukottai Subramaniyapuram MVKM Trust",
    "CenterNumber": "462",
    "long": "0",
    "lat": "0",
    "Address": "No.19, Subramaniyapuram, NGO Colony Extn.,  Pudukkottai 622 005."
  },
  {
    "Continent": "India",
    "Country": "India",
    "State": "TAMILNADU",
    "City": "PUTHUKOTTAI",
    "Name": "Puthukottai MVKM Trust",
    "CenterNumber": "214",
    "long": "78.8208454",
    "lat": "10.379663",
    "Address": "Vazhga Valamudan, 4, Thillai Nagar, Pudukottai - 622004."
  },
  {
    "Continent": "India",
    "Country": "India",
    "State": "TAMILNADU",
    "City": "RAMANATHAPURAM",
    "Name": "Ramanathapuram MVKM Trust",
    "CenterNumber": "102",
    "long": "78.8334566",
    "lat": "9.370589",
    "Address": "175, Devipatinam Road, Kanikarai, Vellipattinam Post, Ramanathapuram - 623504."
  },
  {
    "Continent": "India",
    "Country": "India",
    "State": "TAMILNADU",
    "City": "RAMANATHAPURAM",
    "Name": "Ramanathapuram Velipattinam MVKM",
    "CenterNumber": "274",
    "long": "78.1279609",
    "lat": "9.9388976",
    "Address": "22, Avaiyar Street, Ramanathapuram - 623 501."
  },
  {
    "Continent": "India",
    "Country": "India",
    "State": "TAMILNADU",
    "City": "SALEM",
    "Name": "Athur MVKM Trust",
    "CenterNumber": "247",
    "long": "78.5989184",
    "lat": "11.5962937",
    "Address": "468, Jothi Mill Street, Jothi Nagar, Athur 636 102."
  },
  {
    "Continent": "India",
    "Country": "India",
    "State": "TAMILNADU",
    "City": "SALEM",
    "Name": "Attayampatti  MVKM Trust",
    "CenterNumber": "261",
    "long": "78.046111",
    "lat": "11.531389",
    "Address": " 31, K.V.A. Arthanari Street, Velanatham, Attayampatti (P.O), Salem - 637 501."
  },
  {
    "Continent": "India",
    "Country": "India",
    "State": "TAMILNADU",
    "City": "SALEM",
    "Name": "Ayothiyapattnam MVKM Trust",
    "CenterNumber": "477",
    "long": "0",
    "lat": "0",
    "Address": "No.140/2-1/11, K.M. Nagar, Ayothiyapattnam Post 636 103, Salem District."
  },
  {
    "Continent": "India",
    "Country": "India",
    "State": "TAMILNADU",
    "City": "SALEM",
    "Name": "Edaippadi MVKM Trust",
    "CenterNumber": "155",
    "long": "77.8387867",
    "lat": "11.5847632",
    "Address": "Kalai Arangam Theatre, 31-C, Davantheru, Edaipadi-637101."
  },
  {
    "Continent": "India",
    "Country": "India",
    "State": "TAMILNADU",
    "City": "SALEM",
    "Name": "Elampillai MVKM Trust",
    "CenterNumber": "71",
    "long": "78.007",
    "lat": "11.6",
    "Address": "No.9 - 1/20, Kakapalayam Main Road, Elampillai Post, Salem - 637 502."
  },
  {
    "Continent": "India",
    "Country": "India",
    "State": "TAMILNADU",
    "City": "SALEM",
    "Name": "Mecheri Amman Nagar MVKM Trust",
    "CenterNumber": "356",
    "long": "77.9424531",
    "lat": "11.83266",
    "Address": "No.11/4-25, Petrol Bunk Opp, Mettur Main Road, Kaleepatti Post, Mecheri - 636453. Salem Dt."
  },
  {
    "Continent": "India",
    "Country": "India",
    "State": "TAMILNADU",
    "City": "SALEM",
    "Name": "Mettur Dam MVKM Trust",
    "CenterNumber": "87",
    "long": "77.6839469",
    "lat": "11.4463521",
    "Address": "T.O.C. Vethathiri Nagar,  State Bank Colony Quarters Backside,  Mettur Dam 636 401."
  },
  {
    "Continent": "India",
    "Country": "India",
    "State": "TAMILNADU",
    "City": "SALEM",
    "Name": "Puthuchampalli  MVKM Trust",
    "CenterNumber": "45",
    "long": "77.8225923",
    "lat": "11.805204",
    "Address": " C/o.A/N.M.Pachaiyannan, MIC, No.38-151 EID, V.O.C Nagar, Mettur Dam RS - 636402."
  },
  {
    "Continent": "India",
    "Country": "India",
    "State": "TAMILNADU",
    "City": "SALEM",
    "Name": "Salem Ammapet MVKM Trust",
    "CenterNumber": "44",
    "long": "0",
    "lat": "0",
    "Address": "No.46.E, Vethathiri Maharishi Nagar, New Street Extn, Ammapettai, Salem - 636003."
  },
  {
    "Continent": "India",
    "Country": "India",
    "State": "TAMILNADU",
    "City": "SALEM",
    "Name": "Salem Dadagapatti MVKM Trust",
    "CenterNumber": "212",
    "long": "78.1521676",
    "lat": "11.6330913",
    "Address": "Secretary, 6th Mariamman Koil Street,  (SBI Backside), Dadagapatti, Salem - 636006."
  },
  {
    "Continent": "India",
    "Country": "India",
    "State": "TAMILNADU",
    "City": "SALEM",
    "Name": "Salem Karungalpatti MVKM Trust",
    "CenterNumber": "283",
    "long": "78.1535928",
    "lat": "11.6345481",
    "Address": "41/13, 3rd North Muniyappan Koil Street, Karungalpatti, Salem - 636 006."
  },
  {
    "Continent": "India",
    "Country": "India",
    "State": "TAMILNADU",
    "City": "SALEM",
    "Name": "Salem Kasakaranoor MVKM Trust",
    "CenterNumber": "99",
    "long": "78.1364889",
    "lat": "11.6897632",
    "Address": "14/10A, Ragavan St, Bavani Hospital Road, Swarnapuri, Salem - 636 004."
  },
  {
    "Continent": "India",
    "Country": "India",
    "State": "TAMILNADU",
    "City": "SALEM",
    "Name": "Salem Kitchipalayam MVKM Trust",
    "CenterNumber": "213",
    "long": "0",
    "lat": "0",
    "Address": "149A, I Floor, 3rd Cross V.O.C. Nagar, Kichipalayam, Salem - 636 015."
  },
  {
    "Continent": "India",
    "Country": "India",
    "State": "TAMILNADU",
    "City": "SALEM",
    "Name": "Salem Seelanaickenpatti MVKM",
    "CenterNumber": "80",
    "long": "78.1443285",
    "lat": "11.6194887",
    "Address": "C/o.A/N.Shanmugam, MIC, No.156/156, Samiyappa Nagar, Seelanaickenpatti, Salem - 636201."
  },
  {
    "Continent": "India",
    "Country": "India",
    "State": "TAMILNADU",
    "City": "SALEM",
    "Name": "Sankakiri MVKM Trust",
    "CenterNumber": "246",
    "long": "0",
    "lat": "0",
    "Address": "Karumpayiram Swami Koil Street, V.N.Palayam, Sankakiri  637 301."
  },
  {
    "Continent": "India",
    "Country": "India",
    "State": "TAMILNADU",
    "City": "SALEM",
    "Name": "Tharamangalam  MVKM Trust",
    "CenterNumber": "256",
    "long": "77.98",
    "lat": "11.7",
    "Address": "Samipattarai, 6th Ward, Vannara street, Tharamangalam, Salem - 636502."
  },
  {
    "Continent": "India",
    "Country": "India",
    "State": "TAMILNADU",
    "City": "SIVAKANGAI",
    "Name": "Karaikkudi MVKM Trust",
    "CenterNumber": "125",
    "long": "78.7801544",
    "lat": "10.0731315",
    "Address": "No.2, Manakiri Palaniyappan Street, Puthusanthai Road, Karaikkudi - 630 001."
  },
  {
    "Continent": "India",
    "Country": "India",
    "State": "TAMILNADU",
    "City": "SIVAKANGAI",
    "Name": "Sivagangai Maravamangalam MVKM Trust",
    "CenterNumber": "473",
    "long": "0",
    "lat": "0",
    "Address": "Nadu Street, Maravamangalam Post 630 554, Kalaiyar Koil Taluk, Sivagangai Dist."
  },
  {
    "Continent": "India",
    "Country": "India",
    "State": "TAMILNADU",
    "City": "SIVAKANGAI",
    "Name": "Sivagangai MVKM Trust",
    "CenterNumber": "20",
    "long": "78.4857024",
    "lat": "9.8521106",
    "Address": "C/o.A/N.SP.Ramanathan, Secretary, Sriram Xerox & Computers, 361-G, Gandhi Road,  Sivagangai - 630 561."
  },
  {
    "Continent": "India",
    "Country": "India",
    "State": "TAMILNADU",
    "City": "THANJAVUR",
    "Name": "Ammapet MVKM Trust",
    "CenterNumber": "282",
    "long": "77.7409162",
    "lat": "11.6213431",
    "Address": "66/4, Kothandaramasamy  Koil St, Ammapet (P.O), Papanasam (T.K)., Thanjavur - 614401."
  },
  {
    "Continent": "India",
    "Country": "India",
    "State": "TAMILNADU",
    "City": "THANJAVUR",
    "Name": "Kumbakonam MVKM Trust",
    "CenterNumber": "64",
    "long": "79.7419238",
    "lat": "10.9412207",
    "Address": "No.47, Noor Nagar, Pidarikulam Road, Thiruvidaimarudoor Road, Kumbakonam-612 001."
  },
  {
    "Continent": "India",
    "Country": "India",
    "State": "TAMILNADU",
    "City": "THANJAVUR",
    "Name": "Madukkur MVKM Trust",
    "CenterNumber": "395",
    "long": "79.3203356",
    "lat": "10.5461977",
    "Address": "No.89, Vallalar Street, Madukkur 614 903."
  },
  {
    "Continent": "India",
    "Country": "India",
    "State": "TAMILNADU",
    "City": "THANJAVUR",
    "Name": "Orathanadu MVKM Trust",
    "CenterNumber": "373",
    "long": "79.2530889",
    "lat": "10.6286438",
    "Address": "Jagathambal Complex, 6, Samy Lab, Royar Street,  Orathanadu 614 625, Thanjavur Dist"
  },
  {
    "Continent": "India",
    "Country": "India",
    "State": "TAMILNADU",
    "City": "THANJAVUR",
    "Name": "Pattukottai MVKM Trust",
    "CenterNumber": "145",
    "long": "79.3095848",
    "lat": "10.4293863",
    "Address": "47/F-55, R.R. Illam, Venkidachalam Nagar, Aranthangi Road, Pattukkottai 614 601."
  },
  {
    "Continent": "India",
    "Country": "India",
    "State": "TAMILNADU",
    "City": "THANJAVUR",
    "Name": "Peravoorani MVKM Trust",
    "CenterNumber": "257",
    "long": "79.1031242",
    "lat": "10.2251867",
    "Address": "Arivuthirukoil, Puthu Road, Sathiyamoorthy Nagar, Peravoorani 614 804."
  },
  {
    "Continent": "India",
    "Country": "India",
    "State": "TAMILNADU",
    "City": "THANJAVUR",
    "Name": "Thanjai MVKM Trust",
    "CenterNumber": "196",
    "long": "79.1265161",
    "lat": "10.7747496",
    "Address": "Vethathiri Kudil, 14,Srinivasa Nagar, Co-Operative Colony Salai, Thanjavur - 613007."
  },
  {
    "Continent": "India",
    "Country": "India",
    "State": "TAMILNADU",
    "City": "THANJAVUR",
    "Name": "Thanjai Nagara MVKM Trust",
    "CenterNumber": "244",
    "long": "79.1385422",
    "lat": "10.7750825",
    "Address": "No.6, St.Saviour I.T.I. Complex, Trichy Main Road, Thanjavur  613 001."
  },
  {
    "Continent": "India",
    "Country": "India",
    "State": "TAMILNADU",
    "City": "THANJAVUR",
    "Name": "Thanjai Valanaadu MVKM Trust",
    "CenterNumber": "440",
    "long": "79.3760378",
    "lat": "10.958899",
    "Address": "No.4, Natarajapuram North, Medical College Post, Thanjavur 613 004."
  },
  {
    "Continent": "India",
    "Country": "India",
    "State": "TAMILNADU",
    "City": "THANJAVUR",
    "Name": "Vangarampettai MVKM Trust",
    "CenterNumber": "471",
    "long": "79.2708047",
    "lat": "10.9251895",
    "Address": "6, Salma Complex, Kadai Veethi, Papanasam 614 205, Thanjavur Dist."
  },
  {
    "Continent": "India",
    "Country": "India",
    "State": "TAMILNADU",
    "City": "THIRUVALLUR",
    "Name": "Ambathur MVKM Trust",
    "CenterNumber": "150",
    "long": "80.1470326",
    "lat": "13.1190942",
    "Address": "No.14/2 - C, Nainiammal Street, Krishnapuram, Ambathur, Chennai - 600053."
  },
  {
    "Continent": "India",
    "Country": "India",
    "State": "TAMILNADU",
    "City": "THIRUVALLUR",
    "Name": "Arakkonam Jothi Nagar MVKM Trust",
    "CenterNumber": "unknown",
    "long": "79.660956",
    "lat": "13.0904602",
    "Address": "Arakkonam Jothi Nagar Arivu Thirukkoil, 53/2, Bharathi Street (Near Thirukkoil), Arakkonam - 631 003."
  },
  {
    "Continent": "India",
    "Country": "India",
    "State": "TAMILNADU",
    "City": "THIRUVALLUR",
    "Name": "Arakkonam Town MVKM Trust",
    "CenterNumber": "254",
    "long": "0",
    "lat": "0",
    "Address": "No.7/15, Vellaikkulam 4th street, Arakkonam - 631001."
  },
  {
    "Continent": "India",
    "Country": "India",
    "State": "TAMILNADU",
    "City": "THIRUVALLUR",
    "Name": "Avadi Kasturibai Nagar MVKM Trust",
    "CenterNumber": "381",
    "long": "80.2532139",
    "lat": "12.9501128",
    "Address": "No.10, Anbazhakan 2nd Street, Gandhi Nagar, Avadi, Chennai 600 054."
  },
  {
    "Continent": "India",
    "Country": "India",
    "State": "TAMILNADU",
    "City": "THIRUVALLUR",
    "Name": "Avadi MVKM Trust",
    "CenterNumber": "205",
    "long": "80.1146751",
    "lat": "13.1106305",
    "Address": "No.11, 5th St, J.B.Estate, Dhanagiri, Avadi, Chennai 600 054."
  },
  {
    "Continent": "India",
    "Country": "India",
    "State": "TAMILNADU",
    "City": "THIRUVALLUR",
    "Name": "Chenkundram MVKM Trust",
    "CenterNumber": "264",
    "long": "80.291872",
    "lat": "13.0998554",
    "Address": " 6, Abdul Marakayar Street, Chenkundram, Chennai - 600052."
  },
  {
    "Continent": "India",
    "Country": "India",
    "State": "TAMILNADU",
    "City": "THIRUVALLUR",
    "Name": "ICF MVKM Trust",
    "CenterNumber": "457",
    "long": "80.2190478",
    "lat": "13.0983999",
    "Address": "19/2, ICF East Colony, Chennai 600 038."
  },
  {
    "Continent": "India",
    "Country": "India",
    "State": "TAMILNADU",
    "City": "THIRUVALLUR",
    "Name": "Korattur PPICF  MVKM Trust",
    "CenterNumber": "386",
    "long": "80.1810617",
    "lat": "13.1156777",
    "Address": "No.2, 42nd Street, Korattur, Chennai 600 080."
  },
  {
    "Continent": "India",
    "Country": "India",
    "State": "TAMILNADU",
    "City": "THIRUVALLUR",
    "Name": "Madhavaram MVKM Trust",
    "CenterNumber": "359",
    "long": "80.0924795",
    "lat": "13.1244602",
    "Address": "18, Anna Cross Street,  Erukancherry, Chennai 600 118."
  },
  {
    "Continent": "India",
    "Country": "India",
    "State": "TAMILNADU",
    "City": "THIRUVALLUR",
    "Name": "Manali New Town MVKM Trust",
    "CenterNumber": "311",
    "long": "80.2776126",
    "lat": "13.2032738",
    "Address": "No.7A/11, Manali New Town, Near Vinayagar Koil, Chennai  600 103."
  },
  {
    "Continent": "India",
    "Country": "India",
    "State": "TAMILNADU",
    "City": "THIRUVALLUR",
    "Name": "Mathur MMDA MVKM Trust",
    "CenterNumber": "312",
    "long": "80.2497646",
    "lat": "13.1696082",
    "Address": "No.2377, 3rd Main Road, Mathur, Chennai - 600 068."
  },
  {
    "Continent": "India",
    "Country": "India",
    "State": "TAMILNADU",
    "City": "THIRUVALLUR",
    "Name": "Meleri MVKM Trust",
    "CenterNumber": "262",
    "long": "79.6558242",
    "lat": "13.0752392",
    "Address": "Managing Trustee, No.4/65 Bajanai Koil St, Meleri Village & Po, Arakonam Taluk, Vellore Dt - 632502."
  },
  {
    "Continent": "India",
    "Country": "India",
    "State": "TAMILNADU",
    "City": "THIRUVALLUR",
    "Name": "Minjur MVKM Trust",
    "CenterNumber": "316",
    "long": "80.264654",
    "lat": "13.267701",
    "Address": "No.4, Nehru Street, Pachaiamman Nagar, Minjur - 601 203, Ponneri Taluk, Tiruvallur Dt."
  },
  {
    "Continent": "India",
    "Country": "India",
    "State": "TAMILNADU",
    "City": "THIRUVALLUR",
    "Name": "Mugapare Paneer Nagar  MVKM Trust",
    "CenterNumber": "387",
    "long": "0",
    "lat": "0",
    "Address": "48, Thiruvalluvar Nagar, 2nd Street, Mogappair, Chennai 600 037."
  },
  {
    "Continent": "India",
    "Country": "India",
    "State": "TAMILNADU",
    "City": "THIRUVALLUR",
    "Name": "Pazhaverkadu MVKM Trust",
    "CenterNumber": "unknown",
    "long": "80.1981568",
    "lat": "13.3534937",
    "Address": "C/o.A/N.D.Natarajan, 27/7, Bajanai Koil Street, Thonirevu Village, Pazhverkadu Post 601 205, Ponneri Taluk, Trivellore Dist. Ponneri Taluk, Trivellore Dist."
  },
  {
    "Continent": "India",
    "Country": "India",
    "State": "TAMILNADU",
    "City": "THIRUVALLUR",
    "Name": "Ponneri  MVKM Trust",
    "CenterNumber": "426",
    "long": "0",
    "lat": "0",
    "Address": "Puthuvoyal Village & Post 601 206, Gumidipundi Taluk, Thiruvallur Dist."
  },
  {
    "Continent": "India",
    "Country": "India",
    "State": "TAMILNADU",
    "City": "THIRUVALLUR",
    "Name": "Poonamallee HPS MVKM Trust",
    "CenterNumber": "338",
    "long": "80.1251558",
    "lat": "13.04772",
    "Address": "No.62, New No. 7/4 A, 5th Cross st, Thirumal Nagar, Poonamallee, Chennai - 600056."
  },
  {
    "Continent": "India",
    "Country": "India",
    "State": "TAMILNADU",
    "City": "THIRUVALLUR",
    "Name": "Porur Sakthi Nagar MVKM Trust",
    "CenterNumber": "275",
    "long": "80.1630924",
    "lat": "13.0289437",
    "Address": "Plot No.40, Ganesh Avenue ( Extn),  Sakthinagar, Porur, Chennai - 600 116."
  },
  {
    "Continent": "India",
    "Country": "India",
    "State": "TAMILNADU",
    "City": "THIRUVALLUR",
    "Name": "Thiruvallur MVKM Trust",
    "CenterNumber": "313",
    "long": "80.2336219",
    "lat": "13.0361067",
    "Address": "Old No.4/4, New No.75, C.V. Naidu Salai, 2nd floor, Trivellore - 602 001."
  },
  {
    "Continent": "India",
    "Country": "India",
    "State": "TAMILNADU",
    "City": "THIRUVALLUR",
    "Name": "Thiruvottriyur MVKM Trust",
    "CenterNumber": "59",
    "long": "80.2997517",
    "lat": "13.1561761",
    "Address": "No.52/71, Kailash Sector 5th Veethi, Chinnamettupalayam, Thiruvottriyur, Chennai - 600019."
  },
  {
    "Continent": "India",
    "Country": "India",
    "State": "TAMILNADU",
    "City": "THIRUVALLUR",
    "Name": "Vanagaram MVKM Trust",
    "CenterNumber": "326",
    "long": "80.1854439",
    "lat": "13.0461574",
    "Address": "No.1/261, Palaniappa Nagar 3rd Street, Vanagaram Post, Chennai - 600 095."
  },
  {
    "Continent": "India",
    "Country": "India",
    "State": "TAMILNADU",
    "City": "THIRUVANNAMALAI",
    "Name": "Ambur MVKM Trust",
    "CenterNumber": "210",
    "long": "78.7129248",
    "lat": "12.787257",
    "Address": "No.9/3 B, Old Hospital Street, Krishnapuram, Ambur - 635802. Ph:9444636971(MIC), 9443145480(MT)"
  },
  {
    "Continent": "India",
    "Country": "India",
    "State": "TAMILNADU",
    "City": "THIRUVANNAMALAI",
    "Name": "Ambur Pallitheru MVKM Trust",
    "CenterNumber": "447",
    "long": "78.7166084",
    "lat": "12.7903613",
    "Address": "T.O.C., Naiduhall Complex, Pallitheru Village, Umarapath Post 635 808,Ambur T.K., Vellore Dist."
  },
  {
    "Continent": "India",
    "Country": "India",
    "State": "TAMILNADU",
    "City": "THIRUVANNAMALAI",
    "Name": "Arcot MVKM Trust",
    "CenterNumber": "278",
    "long": "79.3249221",
    "lat": "12.9105318",
    "Address": "Aroct TOC, Devi Nagar, Sri Ramakrishna Metric Hr.Sec.School, Arcot - 632503."
  },
  {
    "Continent": "India",
    "Country": "India",
    "State": "TAMILNADU",
    "City": "THIRUVANNAMALAI",
    "Name": "Arni Kosapalayam MVKM Trust",
    "CenterNumber": "242",
    "long": "79.28",
    "lat": "12.67",
    "Address": "Thachoor Road, Anjaneyar Temple Complex,  Arni - 632301."
  },
  {
    "Continent": "India",
    "Country": "India",
    "State": "TAMILNADU",
    "City": "THIRUVANNAMALAI",
    "Name": "Arni Kunnathur MVKM Trust",
    "CenterNumber": "unknown",
    "long": "79.0941392",
    "lat": "12.2487238",
    "Address": "No.95, Pillayar Koil Street, Kunnathur Post, Arani T.K., Tiruvannammalai Dist 632 314."
  },
  {
    "Continent": "India",
    "Country": "India",
    "State": "TAMILNADU",
    "City": "THIRUVANNAMALAI",
    "Name": "Chengam MVKM Trust",
    "CenterNumber": "364",
    "long": "78.8",
    "lat": "12.3",
    "Address": "No.264 A, Rajaveedhi, Chengam - 606701. Thiruvannamalai District"
  },
  {
    "Continent": "India",
    "Country": "India",
    "State": "TAMILNADU",
    "City": "THIRUVANNAMALAI",
    "Name": "Cheyyar Anna Nagar MVKM Trust",
    "CenterNumber": "333",
    "long": "79.5343503",
    "lat": "12.6793237",
    "Address": "11/1, K.V.Raman Street, Anna Nagar,  Cheyyar, Thiruvannamalai - 604407."
  },
  {
    "Continent": "India",
    "Country": "India",
    "State": "TAMILNADU",
    "City": "THIRUVANNAMALAI",
    "Name": "Cheyyar MVKM Trust",
    "CenterNumber": "227",
    "long": "79.5424",
    "lat": "12.658",
    "Address": "No.32/3,  Vetri Xerox,  Head Post office Opp, Cheyyar-604407."
  },
  {
    "Continent": "India",
    "Country": "India",
    "State": "TAMILNADU",
    "City": "THIRUVANNAMALAI",
    "Name": "Gudiyattam MVKM Trust",
    "CenterNumber": "12",
    "long": "78.3330157",
    "lat": "12.7470314",
    "Address": "1/16, Amannag Kuppam Rice Mill, Pajanai Koil Street, Gudiyattam (R.S), Gudiyattam  635 803."
  },
  {
    "Continent": "India",
    "Country": "India",
    "State": "TAMILNADU",
    "City": "THIRUVANNAMALAI",
    "Name": "Kalambur Mvkm Trust",
    "CenterNumber": "334",
    "long": "0",
    "lat": "0",
    "Address": "No.6, Mariyamman Koil Street, Kalambur - 606 903."
  },
  {
    "Continent": "India",
    "Country": "India",
    "State": "TAMILNADU",
    "City": "THIRUVANNAMALAI",
    "Name": "Kalasapakkam MVKM Trust",
    "CenterNumber": "466",
    "long": "0",
    "lat": "0",
    "Address": "Chinna Street, South Pallipattu Village & Post, Kalasapakkam 606 751."
  },
  {
    "Continent": "India",
    "Country": "India",
    "State": "TAMILNADU",
    "City": "THIRUVANNAMALAI",
    "Name": "Onnupuram MVKM Trust",
    "CenterNumber": "unknown",
    "long": "79.2830046",
    "lat": "12.6731729",
    "Address": "4/668A, Devankapuram Road, Onnupuram 632315, Arani Taluk, Thiruvannamalai Dist."
  },
  {
    "Continent": "India",
    "Country": "India",
    "State": "TAMILNADU",
    "City": "THIRUVANNAMALAI",
    "Name": "Polur MVKM Trust",
    "CenterNumber": "217",
    "long": "79.1293743",
    "lat": "12.5083373",
    "Address": "Vazhga Valamudan Santhosh Illam, 14/A, Dr.Radakrishnan Street, Diversion Road, Polur, Thiruvannamalai - 606 803."
  },
  {
    "Continent": "India",
    "Country": "India",
    "State": "TAMILNADU",
    "City": "THIRUVANNAMALAI",
    "Name": "Ranipetttai MVKM Trust",
    "CenterNumber": "139",
    "long": "79.3321115",
    "lat": "12.9341127",
    "Address": "Jothi Vallalar Mandram, Sangam Street, Navalpur, Ranipet 632 402."
  },
  {
    "Continent": "India",
    "Country": "India",
    "State": "TAMILNADU",
    "City": "THIRUVANNAMALAI",
    "Name": "SANKARANPALAYAM ARIVUTHIRUKOIL, MVKM TRUST",
    "CenterNumber": "unknown",
    "long": "0",
    "lat": "0",
    "Address": "8, BHARATHI NAGAR, 1 ST STREET, PALAVANSATHU, (PAPAMMAL THIRUMANA MANDABAM OPP ST,) , VELLORE - 632002."
  },
  {
    "Continent": "India",
    "Country": "India",
    "State": "TAMILNADU",
    "City": "THIRUVANNAMALAI",
    "Name": "Sathuvachary MVKM Trust",
    "CenterNumber": "30",
    "long": "0",
    "lat": "0",
    "Address": "No.22, Kurinchi Nagar, Sathuvachari, Vellore - 632009."
  },
  {
    "Continent": "India",
    "Country": "India",
    "State": "TAMILNADU",
    "City": "THIRUVANNAMALAI",
    "Name": "Subanravpet Mvkm Trust",
    "CenterNumber": "335",
    "long": "79.2880998",
    "lat": "12.6652219",
    "Address": "1152/3, Sri Saravana Modern Rice Mill Campus, Vellore Road, Sevoor 632 316,  Arni T.K., Thiruvannamalai Dt."
  },
  {
    "Continent": "India",
    "Country": "India",
    "State": "TAMILNADU",
    "City": "THIRUVANNAMALAI",
    "Name": "Thandarampet MVKM Trust",
    "CenterNumber": "unknown",
    "long": "0",
    "lat": "0",
    "Address": "O.No.1/56, N.No.1/389, Salem Main Road, Thandarampet Post 606 707, Tiruvannamalai Dist."
  },
  {
    "Continent": "India",
    "Country": "India",
    "State": "TAMILNADU",
    "City": "THIRUVANNAMALAI",
    "Name": "Thanipadi MVKM Trust",
    "CenterNumber": "396",
    "long": "78.9360258",
    "lat": "12.1575399",
    "Address": "No.340, Forest Banglow Street, Thanipadi - 606 708. Thiruvannamalai District."
  },
  {
    "Continent": "India",
    "Country": "India",
    "State": "TAMILNADU",
    "City": "THIRUVANNAMALAI",
    "Name": "Thiruvannamalai MVKM Trust",
    "CenterNumber": "190",
    "long": "0",
    "lat": "0",
    "Address": "Vethathiri Nagar, Kanchi Road, (Near Kubaraperrumal Koil), Thiruvannamalai T.K.  606 604."
  },
  {
    "Continent": "India",
    "Country": "India",
    "State": "TAMILNADU",
    "City": "THIRUVANNAMALAI",
    "Name": "Thiruvothur MVKM Trust",
    "CenterNumber": "unknown",
    "long": "79.5266211",
    "lat": "12.7009808",
    "Address": "No.21/10, Kodi Cross Street, Tiruvathipuram (P.O), Cheyyar (TK), Thiruvannamalai - 604407."
  },
  {
    "Continent": "India",
    "Country": "India",
    "State": "TAMILNADU",
    "City": "THIRUVANNAMALAI",
    "Name": "Tirupathur MVKM Trust",
    "CenterNumber": "115",
    "long": "78.5701749",
    "lat": "12.5080698",
    "Address": "Vethathiri Nagar, Tamil Nadu Housing Board I, Tirupathur - 635601."
  },
  {
    "Continent": "India",
    "Country": "India",
    "State": "TAMILNADU",
    "City": "THIRUVANNAMALAI",
    "Name": "Vandavasi MVKM Trust",
    "CenterNumber": "371",
    "long": "79.28819187",
    "lat": "12.6652219",
    "Address": "No.20, Tha.Kishtappa Udaiyar Street, Vandavasi, Thiruvannamalai(DT) - 604408."
  },
  {
    "Continent": "India",
    "Country": "India",
    "State": "TAMILNADU",
    "City": "THIRUVARUR",
    "Name": "Karaikal MVKM Trust",
    "CenterNumber": "65",
    "long": "79.8464804",
    "lat": "10.9075513",
    "Address": "Arivuthirukoil, 5th Cross Street,  Extension, MMG Nagar, Karaikkal - 609 602."
  },
  {
    "Continent": "India",
    "Country": "India",
    "State": "TAMILNADU",
    "City": "THIRUVARUR",
    "Name": "Manargudi MVKM Trust",
    "CenterNumber": "100",
    "long": "79.453512",
    "lat": "10.6606199",
    "Address": "Quality Furniture Palace, 114 - C, Periya Kadai St,  Kalki Building, Mannarkudi-614001."
  },
  {
    "Continent": "India",
    "Country": "India",
    "State": "TAMILNADU",
    "City": "THIRUVARUR",
    "Name": "Mannargudi Melaveedhi MVKM Trust",
    "CenterNumber": "323",
    "long": "79.4507152",
    "lat": "10.6648689",
    "Address": "Melaveedhi Arivuthirukoil, Gopala Samuthiram Melaveedhi, Mannargudi & Post 614 001. Thiruvarur Dist."
  },
  {
    "Continent": "India",
    "Country": "India",
    "State": "TAMILNADU",
    "City": "THIRUVARUR",
    "Name": "Nidamangalam MVKM Trust",
    "CenterNumber": "76",
    "long": "0",
    "lat": "0",
    "Address": "4A, Keela Street,  Nidamangalam - 614 404."
  },
  {
    "Continent": "India",
    "Country": "India",
    "State": "TAMILNADU",
    "City": "THIRUVARUR",
    "Name": "Thiruvarur MVKM Trust",
    "CenterNumber": "298",
    "long": "79.5216644",
    "lat": "10.7173564",
    "Address": "7A-2, Javulikara Street, Thiruvarur 610 001."
  },
  {
    "Continent": "India",
    "Country": "India",
    "State": "TAMILNADU",
    "City": "THIRUVARUR",
    "Name": "Tiruthuraipoondi MVKM Trust",
    "CenterNumber": "60",
    "long": "79.6361748",
    "lat": "10.5251306",
    "Address": "569/1, Balraj Nagar, Mannai Salai, Tiruthuraipoondi - 614713."
  },
  {
    "Continent": "India",
    "Country": "India",
    "State": "TAMILNADU",
    "City": "THIRUVARUR",
    "Name": "Ullikottai MVKM Trust",
    "CenterNumber": "269",
    "long": "79.4162448",
    "lat": "10.592771",
    "Address": "1/375, Main Road, Ullikottai 614 018. Mannargudi T.K., Thiruvarur Dist."
  },
  {
    "Continent": "India",
    "Country": "India",
    "State": "TAMILNADU",
    "City": "THIRUVARUR",
    "Name": "Vaduvur MVKM Trust",
    "CenterNumber": "322",
    "long": "79.3189354",
    "lat": "10.7124436",
    "Address": "Arulagam, Arutperum Jothi Campus, Thatara Street, Vaduvur Via - 614019."
  },
  {
    "Continent": "India",
    "Country": "India",
    "State": "TAMILNADU",
    "City": "THIRUVARUR",
    "Name": "Valangaimon MVKM Trust",
    "CenterNumber": "199",
    "long": "79.3950559",
    "lat": "10.8892374",
    "Address": "No.32, Chetti Street, Valangaimon - 612804."
  },
  {
    "Continent": "India",
    "Country": "India",
    "State": "TAMILNADU",
    "City": "TIRUNELVELI",
    "Name": "Alangulam MVKM Trust",
    "CenterNumber": "432",
    "long": "77.4839173",
    "lat": "8.8695365",
    "Address": "No.85, Kamaraj Nagar, Alankulam - 627 851, Tirunelveli Dist."
  },
  {
    "Continent": "India",
    "Country": "India",
    "State": "TAMILNADU",
    "City": "TIRUNELVELI",
    "Name": "Courtallam MVKM Trust",
    "CenterNumber": "198",
    "long": "77.5301671",
    "lat": "8.7330148",
    "Address": " Arun Illam, 47/31-A,  Kamaraj Nagar, Pavoorchathiram, Tirunelveli - 627 808."
  },
  {
    "Continent": "India",
    "Country": "India",
    "State": "TAMILNADU",
    "City": "TIRUNELVELI",
    "Name": "Marungoor  MVKM Trust",
    "CenterNumber": "506",
    "long": "0",
    "lat": "0",
    "Address": "9/78, South Street, Marungoor 629 402."
  },
  {
    "Continent": "India",
    "Country": "India",
    "State": "TAMILNADU",
    "City": "TIRUNELVELI",
    "Name": "Nagercoil MVKM Trust",
    "CenterNumber": "16",
    "long": "77.4332177",
    "lat": "8.1838932",
    "Address": " 405/127, C.B.H.Road, Melakalumkady, Vadasery, Nagercoil - 629 001."
  },
  {
    "Continent": "India",
    "Country": "India",
    "State": "TAMILNADU",
    "City": "TIRUNELVELI",
    "Name": "Nellai MVKM Trust",
    "CenterNumber": "38",
    "long": "0",
    "lat": "0",
    "Address": "9th North Street, 70, P.A. Pillai Nagar,  Thiyagaraja Nagar, Tirunelveli - 627 011."
  },
  {
    "Continent": "India",
    "Country": "India",
    "State": "TAMILNADU",
    "City": "TIRUNELVELI",
    "Name": "Nellai Shreenivassa Nagar MVKM Trust",
    "CenterNumber": "424",
    "long": "77.7493104",
    "lat": "8.6994513",
    "Address": "A-14/2, Thendran Nagar, Maharaja Nagar Post 527 011, Tirunelveli Dist."
  },
  {
    "Continent": "India",
    "Country": "India",
    "State": "TAMILNADU",
    "City": "TIRUNELVELI",
    "Name": "Vethalogaa  MVKM Trust",
    "CenterNumber": "406",
    "long": "0",
    "lat": "0",
    "Address": "Vethalogaa  MVKM Trust, A157, N.G.O. A Colony, Palayankottai Jawahar Nagar, Tirunelveli 627 007."
  },
  {
    "Continent": "India",
    "Country": "India",
    "State": "TAMILNADU",
    "City": "TIRUNELVELI",
    "Name": "Palayankottai MVKM Trust",
    "CenterNumber": "117",
    "long": "77.7406261",
    "lat": "8.7199105",
    "Address": "16-1, Kulasekara Alwar Street, Palayankottai, Tirunelveli - 627 002."
  },
  {
    "Continent": "India",
    "Country": "India",
    "State": "TAMILNADU",
    "City": "TIRUNELVELI",
    "Name": "Perumalpuram MVKM Trust",
    "CenterNumber": "308",
    "long": "77.7388258",
    "lat": "8.7109497",
    "Address": "6/7, 2nd St, Perumalpuram, Tirunelveli - 627007."
  },
  {
    "Continent": "India",
    "Country": "India",
    "State": "TAMILNADU",
    "City": "TIRUNELVELI",
    "Name": "Pothigai  MVKM Trust",
    "CenterNumber": "119",
    "long": "77.5179058",
    "lat": "8.7271548",
    "Address": "14/15, Muthaiya Street, Sadaiyappapuram, Mukkudal - 1."
  },
  {
    "Continent": "India",
    "Country": "India",
    "State": "TAMILNADU",
    "City": "TIRUNELVELI",
    "Name": "Sambavarvadakarai MVKM Trust",
    "CenterNumber": "412",
    "long": "77.5535243",
    "lat": "9.4465782",
    "Address": "6-10-28, South Agraharam, Sambavarvadakarai Post, Tenkasi T.K. 627 856."
  },
  {
    "Continent": "India",
    "Country": "India",
    "State": "TAMILNADU",
    "City": "TIRUNELVELI",
    "Name": "Sankarankoil MVKM Trust",
    "CenterNumber": "26",
    "long": "0",
    "lat": "0",
    "Address": "Arivu Thirukoil, Ezhil Nagar East, 43/4, Thiruvudaiyan Salai 2nd Street, Sankarankoil 627 756."
  },
  {
    "Continent": "India",
    "Country": "India",
    "State": "TAMILNADU",
    "City": "TIRUNELVELI",
    "Name": "Shencottah MVKM Trust",
    "CenterNumber": "23",
    "long": "0",
    "lat": "0",
    "Address": "No.1/31, Murthi Vinayagarkoil Street, Neduvayal, Elathur Via 627 803, Shencottah Taluk, Nellai District."
  },
  {
    "Continent": "India",
    "Country": "India",
    "State": "TAMILNADU",
    "City": "TIRUNELVELI",
    "Name": "Thirunelveli MVKM Trust",
    "CenterNumber": "118",
    "long": "77.6553883",
    "lat": "8.7207054",
    "Address": "No.94, Cheran Magadevi Road, Pettai, Thirunelveli - 627004"
  },
  {
    "Continent": "India",
    "Country": "India",
    "State": "TAMILNADU",
    "City": "TIRUNELVELI",
    "Name": "Vallioor MVKM Trust",
    "CenterNumber": "287",
    "long": "77.6097164",
    "lat": "8.3771142",
    "Address": " No.18,T.B.Road, Kamaraj Nagar, Vallioor - 627117."
  },
  {
    "Continent": "India",
    "Country": "India",
    "State": "TAMILNADU",
    "City": "TIRUPUR",
    "Name": "Avinashi  MVKM Trust",
    "CenterNumber": "233",
    "long": "0",
    "lat": "0",
    "Address": "10/214, Mamarathottam, Kacheri Veethi, Avinashi 641 654."
  },
  {
    "Continent": "India",
    "Country": "India",
    "State": "TAMILNADU",
    "City": "TIRUPUR",
    "Name": "Dharapuram MVKM Trust",
    "CenterNumber": "220",
    "long": "0",
    "lat": "0",
    "Address": "Viji illam, No. 2,  N.G.G.O. Colony,Pollachi Road, Dharapuram - 638656."
  },
  {
    "Continent": "India",
    "Country": "India",
    "State": "TAMILNADU",
    "City": "TIRUPUR",
    "Name": "Kangeyam MVKM Trust",
    "CenterNumber": "172",
    "long": "77.5609843",
    "lat": "11.0053238",
    "Address": "493/3, Arivuthirukoil, Udaiyar Colony, Covai Road, Kangeyam 638 701."
  },
  {
    "Continent": "India",
    "Country": "India",
    "State": "TAMILNADU",
    "City": "TIRUPUR",
    "Name": "KARUVAMPALAYAM MANAVALKKALI MANDRA ARAKKATTALAI",
    "CenterNumber": "unknown",
    "long": "76.9484624",
    "lat": "11.164051",
    "Address": "KARUVAMPALAYAM ARIVUTHIRUKOIL, 26,JOTHIPURAM AALANKADU, TIRUPUR  641 604,"
  },
  {
    "Continent": "India",
    "Country": "India",
    "State": "TAMILNADU",
    "City": "TIRUPUR",
    "Name": "Koduvai MVKM Trust",
    "CenterNumber": "289",
    "long": "0",
    "lat": "0",
    "Address": "No.3/222/5, Maharishi Nagar, Nachiyarpalayam Road, Koduvai 638 660, Thirupur Dt."
  },
  {
    "Continent": "India",
    "Country": "India",
    "State": "TAMILNADU",
    "City": "TIRUPUR",
    "Name": "Kunnathur MVKM Trust",
    "CenterNumber": "491",
    "long": "0",
    "lat": "0",
    "Address": " Malayapalayam Road, Perumal Koil Near, Kunnathur 638 103."
  },
  {
    "Continent": "India",
    "Country": "India",
    "State": "TAMILNADU",
    "City": "TIRUPUR",
    "Name": "Palladam MVKM Trust",
    "CenterNumber": "130",
    "long": "0",
    "lat": "0",
    "Address": "Near Saravana Bhavan, Trichy Road,  Palladam 641 664."
  },
  {
    "Continent": "India",
    "Country": "India",
    "State": "TAMILNADU",
    "City": "TIRUPUR",
    "Name": "Perumanallur MVKM Trust",
    "CenterNumber": "499",
    "long": "77.3542582",
    "lat": "11.2053175",
    "Address": "C/o.A/N.R.Saravanan, Secretary, 183, S.S. Nagar, 3rd Veedhi, Perumanallur 641 666."
  },
  {
    "Continent": "India",
    "Country": "India",
    "State": "TAMILNADU",
    "City": "TIRUPUR",
    "Name": "Tiruppur MVKM Trust",
    "CenterNumber": "132",
    "long": "77.335314",
    "lat": "11.0934405",
    "Address": "No.26, Jothipuram, Alankadu, Karuvampalayam, Tiruppur - 641604."
  },
  {
    "Continent": "India",
    "Country": "India",
    "State": "TAMILNADU",
    "City": "TIRUPUR",
    "Name": "Tirupur 15 Velampalayam MVKM Trust",
    "CenterNumber": "487",
    "long": "0",
    "lat": "0",
    "Address": "Valluvar Thottam,Swarnapuri Avenue, 15 Velampalayam 641 652, Tirupur Dist."
  },
  {
    "Continent": "India",
    "Country": "India",
    "State": "TAMILNADU",
    "City": "TIRUPUR",
    "Name": "Tirupur Amarjothi Nagar MVKM Trust",
    "CenterNumber": "485",
    "long": "0",
    "lat": "0",
    "Address": "21, Amarjothi Garden Ext., Kangeyam Road,  Tirupur 641 604."
  },
  {
    "Continent": "India",
    "Country": "India",
    "State": "TAMILNADU",
    "City": "TIRUPUR",
    "Name": "Tirupur Pandiyan Nagar MVKM Trust",
    "CenterNumber": "486",
    "long": "0",
    "lat": "0",
    "Address": " 8/1467-B, R.S.Puram 1st Veethi, P.N. Road, Pandiyan Nagar, Tirupur 641 602."
  },
  {
    "Continent": "India",
    "Country": "India",
    "State": "TAMILNADU",
    "City": "TIRUPUR",
    "Name": "Tirupur Samundipuram MVKM Trust",
    "CenterNumber": "488",
    "long": "0",
    "lat": "0",
    "Address": "1, Poonthottam, Murungampalayam West, Avinashi Road, Tirupur 641 603."
  },
  {
    "Continent": "India",
    "Country": "India",
    "State": "TAMILNADU",
    "City": "TIRUPUR",
    "Name": "Udumalai MVKM Trust",
    "CenterNumber": "197",
    "long": "0",
    "lat": "0",
    "Address": "Lakshmi Nagar Bus Stop, Tiruppur Road, Eripalayam, Udumalapet 642 126."
  },
  {
    "Continent": "India",
    "Country": "India",
    "State": "TAMILNADU",
    "City": "TIRUPUR",
    "Name": "Uthukuli  MVKM Trust",
    "CenterNumber": "493",
    "long": "0",
    "lat": "0",
    "Address": " Kathithamalai Pathai, Uthukuli 638 751."
  },
  {
    "Continent": "India",
    "Country": "India",
    "State": "TAMILNADU",
    "City": "TIRUPUR",
    "Name": "Vavipalayam MVKM Trust",
    "CenterNumber": "494",
    "long": "0",
    "lat": "0",
    "Address": " Opp. to Agricultural Co-operative Society,  Neruperichal Post 641 602, Vavipalayam, Tirupur Dist."
  },
  {
    "Continent": "India",
    "Country": "India",
    "State": "TAMILNADU",
    "City": "TRICHY",
    "Name": "Bhel MVKM Trust",
    "CenterNumber": "127",
    "long": "78.7396413",
    "lat": "10.804558",
    "Address": "Arivuthirukovil, Vethathiri Nagar, Balaji Nagar Bus Stop, Kattur Post, Trichy 620 019."
  },
  {
    "Continent": "India",
    "Country": "India",
    "State": "TAMILNADU",
    "City": "TRICHY",
    "Name": "Manachanallur MVKM Trust",
    "CenterNumber": "121",
    "long": "78.702222",
    "lat": "10.907778",
    "Address": "No.19, Ankalamman Koil Street, Manachanallur T.K, Tiruchy 621 005."
  },
  {
    "Continent": "India",
    "Country": "India",
    "State": "TAMILNADU",
    "City": "TRICHY",
    "Name": "Manaparai  MVKM Trust",
    "CenterNumber": "195",
    "long": "78.6304128",
    "lat": "10.5086096",
    "Address": "262, Indira Nagar, Manapparai 621 306."
  },
  {
    "Continent": "India",
    "Country": "India",
    "State": "TAMILNADU",
    "City": "TRICHY",
    "Name": "Musiri MVKM Trust",
    "CenterNumber": "141",
    "long": "78.5618799",
    "lat": "10.983455",
    "Address": "5, Cauvery Nagar, Bye Pass - T.Pet Road, Musiri  621 211, Tiruchy Dist."
  },
  {
    "Continent": "India",
    "Country": "India",
    "State": "TAMILNADU",
    "City": "TRICHY",
    "Name": "Samayapuram MVKM Trust",
    "CenterNumber": "369",
    "long": "78.7405357",
    "lat": "10.9229564",
    "Address": "No.15, Marriamman High School Road, Samayapuram Post,  Tiruchy Dt - 621 112."
  },
  {
    "Continent": "India",
    "Country": "India",
    "State": "TAMILNADU",
    "City": "TRICHY",
    "Name": "Srirangam MVKM Trust",
    "CenterNumber": "277",
    "long": "78.6488324",
    "lat": "10.8658734",
    "Address": "No.3A/1, Railway station Road, Srirangam - 620006."
  },
  {
    "Continent": "India",
    "Country": "India",
    "State": "TAMILNADU",
    "City": "TRICHY",
    "Name": "Thuraiyur MVKM Trust",
    "CenterNumber": "267",
    "long": "78.4971438",
    "lat": "11.2953768",
    "Address": "No.1284K, Chithiraipatti Village, Madurapuri Post, Musiri Road, Thuraiyur 621 010, Tiruchy Dist."
  },
  {
    "Continent": "India",
    "Country": "India",
    "State": "TAMILNADU",
    "City": "TRICHY",
    "Name": "Tiruchirappalli K.K.Nagar MVKM Trust",
    "CenterNumber": "458",
    "long": "0",
    "lat": "0",
    "Address": "No.6, Cholan Salai,  Iyyappa Nagar, Tiruchi 620 021."
  },
  {
    "Continent": "India",
    "Country": "India",
    "State": "TAMILNADU",
    "City": "TRICHY",
    "Name": "Tiruchirappalli Ponmalaipatti  MVKM Trust",
    "CenterNumber": "451",
    "long": "78.7180027",
    "lat": "10.7708054",
    "Address": " No.50, Udayar Main Road, Ponnmalaipatti, Tiruchi 620 004."
  },
  {
    "Continent": "India",
    "Country": "India",
    "State": "TAMILNADU",
    "City": "TRICHY",
    "Name": "Tiruchirappalli Rockcity MVKM Trust",
    "CenterNumber": "453",
    "long": "78.64705735",
    "lat": "10.8083793",
    "Address": "No.86, Chinna Chetty Street, Vazhga Valamudan Illam, Trichy 620 008."
  },
  {
    "Continent": "India",
    "Country": "India",
    "State": "TAMILNADU",
    "City": "TRICHY",
    "Name": "Trichi Anna Nagar MVKM Trust",
    "CenterNumber": "500",
    "long": "0",
    "lat": "0",
    "Address": "M9, Phase-I, Anna Nagar, Tiruchi - 620 026."
  },
  {
    "Continent": "India",
    "Country": "India",
    "State": "TAMILNADU",
    "City": "TRICHY",
    "Name": "Trichirappalli MVKM Trust",
    "CenterNumber": "75",
    "long": "78.6960045",
    "lat": "10.8306293",
    "Address": "1st Street (West),  V.N.Nagar, Chinthamani,  Trichy 620 002."
  },
  {
    "Continent": "India",
    "Country": "India",
    "State": "TAMILNADU",
    "City": "TUTICORIN",
    "Name": "Ettayapuram  MVKM Trust",
    "CenterNumber": "436",
    "long": "77.9995589",
    "lat": "9.1470884",
    "Address": "5/61A, Pound Street, Ettayapuram 628 902.Thoothukudi Dist."
  },
  {
    "Continent": "India",
    "Country": "India",
    "State": "TAMILNADU",
    "City": "TUTICORIN",
    "Name": "Kovilpatti Alaguvel Nagar MVKM Trust",
    "CenterNumber": "303",
    "long": "77.8667271",
    "lat": "9.1754455",
    "Address": "No.386, Main Road,  Sri Raja Meera Gold 1 st Floor, Near Town Bus Stand, Kovilpatti - 628501."
  },
  {
    "Continent": "India",
    "Country": "India",
    "State": "TAMILNADU",
    "City": "TUTICORIN",
    "Name": "Kovilpatti MVKM Trust",
    "CenterNumber": "6",
    "long": "77.8732984",
    "lat": "9.1804624",
    "Address": "7C-1, Arunachalampettai Street, Kovilpatti - 628 501,  Thoothukudi Dist."
  },
  {
    "Continent": "India",
    "Country": "India",
    "State": "TAMILNADU",
    "City": "TUTICORIN",
    "Name": "Muthu Nagar MVKM Trust",
    "CenterNumber": "174",
    "long": "78.1222336",
    "lat": "8.7039972",
    "Address": "5/248, E-11,Thangamani Nagar,1st Street,  Muthaiyapuram Post,Thoothukudi - 628005."
  },
  {
    "Continent": "India",
    "Country": "India",
    "State": "TAMILNADU",
    "City": "TUTICORIN",
    "Name": "Thoothukudi  MVKM Trust",
    "CenterNumber": "177",
    "long": "78.1165309",
    "lat": "8.7849243",
    "Address": "No.5/239, C-1,   NGO Colony 3rd Extn, Ganesh nagar, Tuticorin - 628 008."
  },
  {
    "Continent": "India",
    "Country": "India",
    "State": "TAMILNADU",
    "City": "VELLORE",
    "Name": "Alangayam MVKM Trust",
    "CenterNumber": "105",
    "long": "-81.2448251",
    "lat": "31.7688282",
    "Address": "Sri.Venkateswara Fancy  Hall, Cloth Merchant, 154 - Gandhi Road, Alangayam - 635701."
  },
  {
    "Continent": "India",
    "Country": "India",
    "State": "TAMILNADU",
    "City": "VELLORE",
    "Name": "Ambur MVKM Trust",
    "CenterNumber": "210",
    "long": "78.7129248",
    "lat": "12.787257",
    "Address": "No.9/3 B, Old Hospital Street, Krishnapuram, Ambur - 635802. Ph:9444636971(MIC), 9443145480(MT)"
  },
  {
    "Continent": "India",
    "Country": "India",
    "State": "TAMILNADU",
    "City": "VELLORE",
    "Name": "Ambur MVKM Trust",
    "CenterNumber": "210",
    "long": "78.7129248",
    "lat": "12.787257",
    "Address": "No.9/3 B, Old Hospital Street, Krishnapuram, Ambur - 635802. Ph:9444636971(MIC), 9443145480(MT)"
  },
  {
    "Continent": "India",
    "Country": "India",
    "State": "TAMILNADU",
    "City": "VELLORE",
    "Name": "Arcot MVKM Trust",
    "CenterNumber": "278",
    "long": "79.3249221",
    "lat": "12.9105318",
    "Address": "Aroct TOC, Devi Nagar, Sri Ramakrishna Metric Hr.Sec.School, Arcot - 632503."
  },
  {
    "Continent": "India",
    "Country": "India",
    "State": "TAMILNADU",
    "City": "VELLORE",
    "Name": "Gudiyattam MVKM Trust",
    "CenterNumber": "12",
    "long": "78.3330157",
    "lat": "12.7470314",
    "Address": "1/16, Amannag Kuppam Rice Mill, Pajanai Koil Street, Gudiyattam (R.S), Gudiyattam  635 803."
  },
  {
    "Continent": "India",
    "Country": "India",
    "State": "TAMILNADU",
    "City": "VELLORE",
    "Name": "Katpadi MVKM Trust",
    "CenterNumber": "294",
    "long": "79.5752867",
    "lat": "10.4712297",
    "Address": "Saravanabalaj Constraction, No.31.V.A.F.Complex (2 Floor),  Cithur main road, Katpadi,"
  },
  {
    "Continent": "India",
    "Country": "India",
    "State": "TAMILNADU",
    "City": "VELLORE",
    "Name": "Kaveripakkam MVKM Trust",
    "CenterNumber": "370",
    "long": "79.8272506",
    "lat": "11.9354653",
    "Address": "No.253, Bharathi Street, Belliappa Nagar, Walajapet (Post), Vellore Dist 632 513."
  },
  {
    "Continent": "India",
    "Country": "India",
    "State": "TAMILNADU",
    "City": "VELLORE",
    "Name": "Ranipetttai MVKM Trust",
    "CenterNumber": "139",
    "long": "79.3321115",
    "lat": "12.9341127",
    "Address": "Jothi Vallalar Mandram, Sangam Street, Navalpur, Ranipet 632 402."
  },
  {
    "Continent": "India",
    "Country": "India",
    "State": "TAMILNADU",
    "City": "VELLORE",
    "Name": "Rasimalai MVKM Trust",
    "CenterNumber": "461",
    "long": "79.1336413",
    "lat": "12.9115027",
    "Address": "No.98, Avalkara Street,  Kosappettai, Vellore 632 001."
  },
  {
    "Continent": "India",
    "Country": "India",
    "State": "TAMILNADU",
    "City": "VELLORE",
    "Name": "Sathiya Nagar MVKM Trust",
    "CenterNumber": "250",
    "long": "79.1412823",
    "lat": "12.955243",
    "Address": "452, O.C. Perumal Nagar, Gandhi Nagar Post, Vellore 632 006."
  },
  {
    "Continent": "India",
    "Country": "India",
    "State": "TAMILNADU",
    "City": "VELLORE",
    "Name": "Sathuvachary MVKM Trust",
    "CenterNumber": "30",
    "long": "0",
    "lat": "0",
    "Address": "No.22, Kurinchi Nagar, Sathuvachari, Vellore - 632009."
  },
  {
    "Continent": "India",
    "Country": "India",
    "State": "TAMILNADU",
    "City": "VELLORE",
    "Name": "Sholinghur MVKM Trust",
    "CenterNumber": "259",
    "long": "79.4224221",
    "lat": "13.1158121",
    "Address": "No.59, Senghunthar Big Street, Solingar & P.O - 631102."
  },
  {
    "Continent": "India",
    "Country": "India",
    "State": "TAMILNADU",
    "City": "VELLORE",
    "Name": "Tirupathur MVKM Trust",
    "CenterNumber": "115",
    "long": "78.5701749",
    "lat": "12.5080698",
    "Address": "Vethathiri Nagar, Tamil Nadu Housing Board I, Tirupathur - 635601."
  },
  {
    "Continent": "India",
    "Country": "India",
    "State": "TAMILNADU",
    "City": "VELLORE",
    "Name": "Vellore MVKM Trust",
    "CenterNumber": "24",
    "long": "0",
    "lat": "0",
    "Address": " No.32, 6th West Cross Road, Gandhi Nagar, Vellore - 632006."
  },
  {
    "Continent": "India",
    "Country": "India",
    "State": "TAMILNADU",
    "City": "VELLORE",
    "Name": "Vellore Sakthi Nagar MVKM Trust",
    "CenterNumber": "266",
    "long": "79.165278",
    "lat": "12.943333",
    "Address": "Opp. A.L-7, Bharathi Nagar 1st Street, Phase III, Vallalar Sathuvachari, Vellore 632 009."
  },
  {
    "Continent": "India",
    "Country": "India",
    "State": "TAMILNADU",
    "City": "VELLORE",
    "Name": "Vellore Sankaranpalayam MVKM",
    "CenterNumber": "226",
    "long": "79.1293028",
    "lat": "12.8932703",
    "Address": "2/17, Kambar Street, Ezhil Nagar, Thorappadi Post, Vellore 632 002."
  },
  {
    "Continent": "India",
    "Country": "India",
    "State": "TAMILNADU",
    "City": "VELLORE",
    "Name": "Walajapettai MVKM Trust",
    "CenterNumber": "340",
    "long": "80.2429974",
    "lat": "13.1282823",
    "Address": "Sri Shanmuga Saraswathi Illam, No.247 A, Bharathi Street, Belliyappa Nagar, Walajapettai - 632513."
  },
  {
    "Continent": "India",
    "Country": "India",
    "State": "TAMILNADU",
    "City": "VILLUPPURAM",
    "Name": "Chidambaram MVKM Trust",
    "CenterNumber": "144",
    "long": "80.1282852",
    "lat": "13.1237533",
    "Address": "8, Melaveethi, (Near Kanchi Thotti Bus Stand), Chidambaram - 608001."
  },
  {
    "Continent": "India",
    "Country": "India",
    "State": "TAMILNADU",
    "City": "VILLUPPURAM",
    "Name": "Chinna Salem Mvkm Trust",
    "CenterNumber": "332",
    "long": "79.493",
    "lat": "11.941",
    "Address": "No.14, Kadai St (West), Chinna Salem (PO),  Kallakurichi TK, Villupuram DT"
  },
  {
    "Continent": "India",
    "Country": "India",
    "State": "TAMILNADU",
    "City": "VILLUPPURAM",
    "Name": "Elavanasurkottai MVKM Trust",
    "CenterNumber": "unknown",
    "long": "79.291667",
    "lat": "11.690556",
    "Address": "8/88, Salem Main Road, Elavanasurkottai (Po) 607 202, Ulundurpettai, Villupuram Dist"
  },
  {
    "Continent": "India",
    "Country": "India",
    "State": "TAMILNADU",
    "City": "VILLUPPURAM",
    "Name": "Gingee  MVKM Trust",
    "CenterNumber": "170",
    "long": "79.4113072",
    "lat": "12.2524408",
    "Address": "No.1D, Vasudevan Street, Periyagaram, Gingee 604 202."
  },
  {
    "Continent": "India",
    "Country": "India",
    "State": "TAMILNADU",
    "City": "VILLUPPURAM",
    "Name": "Kallakurichi kavarai MVKM Trust",
    "CenterNumber": "unknown",
    "long": "0",
    "lat": "0",
    "Address": "No. 36 Kavarai St, Kallakurichi - 606 202"
  },
  {
    "Continent": "India",
    "Country": "India",
    "State": "TAMILNADU",
    "City": "VILLUPPURAM",
    "Name": "Kallakuruchi MVKM Trust (West)",
    "CenterNumber": "342",
    "long": "0",
    "lat": "0",
    "Address": "17/35, Sivam Koil Street,  Kallakuruchi - 606202."
  },
  {
    "Continent": "India",
    "Country": "India",
    "State": "TAMILNADU",
    "City": "VILLUPPURAM",
    "Name": "Moongilthuraipattu MVKM Trust",
    "CenterNumber": "327",
    "long": "80.260835",
    "lat": "12.9867957",
    "Address": "3/6, Pillayar Koil St, Kamaraj Nagar, Moongilthuraipattu - 605702."
  },
  {
    "Continent": "India",
    "Country": "India",
    "State": "TAMILNADU",
    "City": "VILLUPPURAM",
    "Name": "Nallanpillaipetral MVKM Trust",
    "CenterNumber": "430",
    "long": "79.487898",
    "lat": "11.9539016",
    "Address": "5/45, Bank Street, Nallampillai Petrol Post 604 152, Chenjee T.K., Villupuram Dist."
  },
  {
    "Continent": "India",
    "Country": "India",
    "State": "TAMILNADU",
    "City": "VILLUPPURAM",
    "Name": "Neyveli MVKM Trust",
    "CenterNumber": "159",
    "long": "0",
    "lat": "0",
    "Address": "D-4, Moon Street, Block-19, Neyveli - 607 803."
  },
  {
    "Continent": "India",
    "Country": "India",
    "State": "TAMILNADU",
    "City": "VILLUPPURAM",
    "Name": "Thiruvennainallur MVKM Trust",
    "CenterNumber": "unknown",
    "long": "79.49309182",
    "lat": "11.941",
    "Address": "No.9, Anna Street, Thiruvennainallur 607 203, Villupuram Dist."
  },
  {
    "Continent": "India",
    "Country": "India",
    "State": "TAMILNADU",
    "City": "VILLUPPURAM",
    "Name": "Tindivanam MVKM Trust",
    "CenterNumber": "276",
    "long": "79.218248",
    "lat": "12.249181",
    "Address": "No.139, Prakasapuram,  Mannar Samy Koil,  Tindivanam - 604002."
  },
  {
    "Continent": "India",
    "Country": "India",
    "State": "TAMILNADU",
    "City": "VILLUPPURAM",
    "Name": "Tirukovilur MVKM Trust",
    "CenterNumber": "273",
    "long": "79.2086621",
    "lat": "11.9687124",
    "Address": "Sri Gnanantha School Campus, Mela veedhi, Thirukovilur - 605757."
  },
  {
    "Continent": "India",
    "Country": "India",
    "State": "TAMILNADU",
    "City": "VILLUPPURAM",
    "Name": "Ulundurpet MVKM Trust",
    "CenterNumber": "379",
    "long": "79.2730576",
    "lat": "11.6771859",
    "Address": " No.18, Kandasamipuram East, Ulundurpet  606 107."
  },
  {
    "Continent": "India",
    "Country": "India",
    "State": "TAMILNADU",
    "City": "VILLUPPURAM",
    "Name": "Villupuram MVKM Trust",
    "CenterNumber": "136",
    "long": "0",
    "lat": "0",
    "Address": "No.11, Advocate Nagar, Vandimedu, Villupuram - 605 602."
  },
  {
    "Continent": "India",
    "Country": "India",
    "State": "TAMILNADU",
    "City": "VILLUPPURAM",
    "Name": "Villupuram Salamedu NGGO Colony MVKM Trust",
    "CenterNumber": "450",
    "long": "76.98887911",
    "lat": "10.9802672",
    "Address": "No.80, Imayam Veedhi, N.G.G.O. Colony, Salamedu, Villupuram 605 602."
  },
  {
    "Continent": "India",
    "Country": "India",
    "State": "TAMILNADU",
    "City": "VILLUPPURAM",
    "Name": "Viruthachalam  MVKM Trust",
    "CenterNumber": "48",
    "long": "0",
    "lat": "0",
    "Address": "Pazhampathai Street, Pennadam Post, Titakudi T.K., Cuddalore Dist 606 105."
  },
  {
    "Continent": "India",
    "Country": "India",
    "State": "TAMILNADU",
    "City": "VIRUTHUNAGAR",
    "Name": "Aruppukottai MVKM Trust",
    "CenterNumber": "39",
    "long": "0",
    "lat": "0",
    "Address": "Sappai Ramasamy Street, South Street, Aruppukottai 626 101."
  },
  {
    "Continent": "India",
    "Country": "India",
    "State": "TAMILNADU",
    "City": "VIRUTHUNAGAR",
    "Name": "Mamsapuram MVKM Trust (367)",
    "CenterNumber": "unknown",
    "long": "0",
    "lat": "0",
    "Address": "6, Chinnasamy Pillai Street, Mamsapuram 626 110, Srivilliputhur T.K., Virudhu Nagar Dt."
  },
  {
    "Continent": "India",
    "Country": "India",
    "State": "TAMILNADU",
    "City": "VIRUTHUNAGAR",
    "Name": "Rajapalayam MVKM Trust",
    "CenterNumber": "21",
    "long": "0",
    "lat": "0",
    "Address": "25/D5, Kuppusami Raja Street, Rajapalayam - 626117."
  },
  {
    "Continent": "India",
    "Country": "India",
    "State": "TAMILNADU",
    "City": "VIRUTHUNAGAR",
    "Name": "Sathur MVKM Trust",
    "CenterNumber": "206",
    "long": "77.9110321",
    "lat": "9.3644204",
    "Address": "11/25, Murugam Koil North Mada St, Sathur - 626203."
  },
  {
    "Continent": "India",
    "Country": "India",
    "State": "TAMILNADU",
    "City": "VIRUTHUNAGAR",
    "Name": "Sivakasi V.M. MVKM Trust",
    "CenterNumber": "431",
    "long": "77.95",
    "lat": "9.583333",
    "Address": "No.538, Gnanagiri Road, Palani Andawar puram Colony, Sivakasi 626 189,Virudhu Nagar Dist."
  },
  {
    "Continent": "India",
    "Country": "India",
    "State": "TAMILNADU",
    "City": "VIRUTHUNAGAR",
    "Name": "Srivilliputhur MVKM Trust",
    "CenterNumber": "55",
    "long": "77.6299182",
    "lat": "9.507948",
    "Address": "50, P.P. Mela Mada St, Srivilliputhur - 626125."
  },
  {
    "Continent": "India",
    "Country": "India",
    "State": "TAMILNADU",
    "City": "VIRUTHUNAGAR",
    "Name": "Virudunagar MVKM Trust",
    "CenterNumber": "191",
    "long": "77.960239",
    "lat": "9.574156",
    "Address": "5/736, Nethaji Street, NGO Colony West, Madurai Road, Virudunagar 626 001."
  },
  {
    "Continent": "Asia",
    "Country": "India",
    "State": "TELANGANA",
    "City": "HYDERABAD",
    "Name": "Hyderabad Lalithanagar SKY Trust",
    "CenterNumber": "",
    "long": "78.538546",
    "lat": "17.4567679",
    "Address": "Plot No.301, Madhu Sai Residency, Madhuru Sri Avenue, West Marredpalli, Secunderabad"
  },
  {
    "Continent": "Asia",
    "Country": "India",
    "State": "TELANGANA",
    "City": "HYDERABAD",
    "Name": "Hyderabad SKY Academy Trust",
    "CenterNumber": "181",
    "long": "0",
    "lat": "0",
    "Address": "Flat no:103,Second floor, Madhuban Residency,R T C colony,road no-1,L B Nagar Hyderabad,Telangana State,India. Land Mark:First left lane ,near Abhinanda Grand opp/- Kamineni hospital,L B Nagar."
  },
  {
    "Continent": "Asia",
    "Country": "India",
    "State": "TELANGANA",
    "City": "SECUNDERABAD",
    "Name": "Secunderabad SKY Trust",
    "CenterNumber": "443",
    "long": "78.4352242",
    "lat": "17.4255825",
    "Address": "Plot No.14, Road No.2, 8-6-52/42, Venkataramana Colony, Vanesthilipuram, Hyderabad 500 070."
  },
  {
    "Continent": "Asia",
    "Country": "India",
    "State": "TRIPURA",
    "City": "AGARTALA",
    "Name": "Tripura Centre",
    "CenterNumber": "unknown",
    "long": "91.2728208",
    "lat": "23.8292194",
    "Address": "Melarmutt,    opposite to kali bari,   Agartala, Tripura (W),   Tripura state 799001"
  },
  {
    "Continent": "Asia",
    "Country": "India",
    "State": "WEST BENGAL",
    "City": "EAST MEDINIPUR",
    "Name": "West Bengal Sky Center",
    "CenterNumber": "unknown",
    "long": "88.0771807",
    "lat": "22.0604805",
    "Address": "Haldia    Selvaganapathy     Backside Post Office     Debhong     Haldia     Bhabanipur P S     East Medinipur, West Bengal"
  },
  {
    "Continent": "Asia",
    "Country": "India",
    "State": "WEST BENGAL",
    "City": "KOLKATA",
    "Name": "Kolkata SKY Trust",
    "CenterNumber": "314",
    "long": "88.284102",
    "lat": "22.480823",
    "Address": "E-18/1 Sarsuna satellite township housing, Phase 1, Kolkata 700061."
  },
  {
    "Continent": "Asia",
    "Country": "India",
    "State": "WEST BENGAL",
    "City": "KOLKATA",
    "Name": "Kolkata SKY Yoga center",
    "CenterNumber": "505",
    "long": "85.8023494",
    "lat": "20.2951024",
    "Address": " Bhubaneswar Tamil Sangam, Plot No: 9, Ekamra Vihar, VIP Colony, Nayapalli, Bhubaneswar, Pincode: 751015"
  },
  {
    "Continent": "Asia",
    "Country": "India",
    "State": "WEST BENGAL",
    "City": "KOLKATA",
    "Name": "Kolkatta Sky Center",
    "CenterNumber": "unknown",
    "long": "88.4310521",
    "lat": "22.6140369",
    "Address": "B 1/1 Rajarhat Road Kolkata  700059"
  },
  {
    "Continent": "Japan",
    "Country": "Japan",
    "State": "JAPAN",
    "City": "Omihachiman shi",
    "Name": "SKY Tokyo",
    "CenterNumber": "unknown",
    "long": "136.1141742",
    "lat": "35.1190696",
    "Address": "Shiga - 523-0815, Omihachiman shi, Wakaba cho3Chome 1796-9,"
  },
  {
    "Continent": "Kuwait",
    "Country": "Kuwait",
    "State": "KUWAIT",
    "City": "ABBASIYA",
    "Name": "Abbasiya SKY Meditation Centre - Kuwait",
    "CenterNumber": "unknown",
    "long": "47.48197204",
    "lat": "29.31166",
    "Address": "Kuwait"
  },
  {
    "Continent": "Kuwait",
    "Country": "Kuwait",
    "State": "KUWAIT",
    "City": "FAHAHEEL",
    "Name": "Fahaheel SKY Meditation Centre - Kuwait",
    "CenterNumber": "unknown",
    "long": "48.1334643",
    "lat": "29.083128",
    "Address": "Kuwait"
  },
  {
    "Continent": "Kuwait",
    "Country": "Kuwait",
    "State": "KUWAIT",
    "City": "KUWAIT CITY",
    "Name": "SKY Kuwait",
    "CenterNumber": "unknown",
    "long": "47.481766",
    "lat": "29.31166",
    "Address": "Kuwait"
  },
  {
    "Continent": "Kuwait",
    "Country": "Kuwait",
    "State": "KUWAIT",
    "City": "MANGAF",
    "Name": "Mangaf SKY Meditation Center - Kuwait",
    "CenterNumber": "unknown",
    "long": "47.48197204",
    "lat": "29.31166",
    "Address": "Kuwait"
  },
  {
    "Continent": "Kuwait",
    "Country": "Kuwait",
    "State": "KUWAIT",
    "City": "SALMIYA",
    "Name": "Salmiya SKY Meditation Centre - Kuwait",
    "CenterNumber": "unknown",
    "long": "47.48186902",
    "lat": "29.31166",
    "Address": "Kuwait"
  },
  {
    "Continent": "Malaysia",
    "Country": "Malaysia",
    "State": "MALAYSIA",
    "City": "BATU CAVES",
    "Name": "SKY Human Excellence Batu Caves (Batu Caves, KL)",
    "CenterNumber": "unknown",
    "long": "101.6729053",
    "lat": "3.2337064",
    "Address": "C/O Munieswarar Temple, Kenneison Brothers Jalan Railway 68100 \\r\\nBatu Caves, Malaysia"
  },
  {
    "Continent": "Malaysia",
    "Country": "Malaysia",
    "State": "MALAYSIA",
    "City": "DICKSON",
    "Name": "SKY Meditation Centre Port Dickson (Port Dickson)",
    "CenterNumber": "unknown",
    "long": "101.8304534",
    "lat": "2.5163293",
    "Address": "No.2590, Taman P.D Utama 71000 Port, Dickson, Malaysia."
  },
  {
    "Continent": "Malaysia",
    "Country": "Malaysia",
    "State": "MALAYSIA",
    "City": "IPOH",
    "Name": "Vethathiri Manavalakalai Sangam",
    "CenterNumber": "unknown",
    "long": "101.0617635",
    "lat": "4.6025717",
    "Address": "o.44, Jalan NG Wang Hup Taman Pertama, IPOH."
  },
  {
    "Continent": "Malaysia",
    "Country": "Malaysia",
    "State": "MALAYSIA",
    "City": "JOHOR",
    "Name": "Bukit Indah SKY Meditation Sub centre",
    "CenterNumber": "unknown",
    "long": "103.6502879",
    "lat": "1.479663",
    "Address": "No 27 Jalan Indah, 10/1 Taman Bukit indah. Malaysia"
  },
  {
    "Continent": "Malaysia",
    "Country": "Malaysia",
    "State": "MALAYSIA",
    "City": "JOHOR",
    "Name": "Danga utama SKY Meditation Sub centre",
    "CenterNumber": "unknown",
    "long": "103.6882663",
    "lat": "1.4714314",
    "Address": "No:17 - 02, 3rd floor, Jalan Permata 4 Purat Perdangangau, \\r\\nDanga utama, 81300, Johor Baru, Malaysia"
  },
  {
    "Continent": "Malaysia",
    "Country": "Malaysia",
    "State": "MALAYSIA",
    "City": "JOHOR",
    "Name": "Persatuan Meditasi SKY Malaysia",
    "CenterNumber": "unknown",
    "long": "103.3118824",
    "lat": "2.0106712",
    "Address": "No.24, Jalan 13, Taman Seri Jaya, 86000 Kluang, Johor, Malaysia."
  },
  {
    "Continent": "Malaysia",
    "Country": "Malaysia",
    "State": "MALAYSIA",
    "City": "JOHOR",
    "Name": "SKY Kulai",
    "CenterNumber": "unknown",
    "long": "103.6225985",
    "lat": "1.6233533",
    "Address": "1853, Jalan Jambu 25,Taman Muhibbah, Saleng, \\r\\n81400 Senai, Kulai, Johor, Malaysia"
  },
  {
    "Continent": "Malaysia",
    "Country": "Malaysia",
    "State": "MALAYSIA",
    "City": "JOHOR",
    "Name": "SKY Meditation Centre, J.B.",
    "CenterNumber": "unknown",
    "long": "103.7515276",
    "lat": "1.4855222",
    "Address": "No.7-20, Jalan Dato Jaafar 1, Taman Dato, \\r\\nOnn Impian Business Park 80350, Johor."
  },
  {
    "Continent": "Malaysia",
    "Country": "Malaysia",
    "State": "MALAYSIA",
    "City": "JOHOR",
    "Name": "Vethathiri Maharishi Meditation Society",
    "CenterNumber": "unknown",
    "long": "103.3218363",
    "lat": "2.0050357",
    "Address": "No.4, 1st Floor, Jalan Hang Tuah 4/1, Taman Muhibbah, 86000, \\r\\nKluang, Johor, Malaysia"
  },
  {
    "Continent": "Malaysia",
    "Country": "Malaysia",
    "State": "MALAYSIA",
    "City": "KLANG",
    "Name": "SKY Meditation Centre, Klang",
    "CenterNumber": "unknown",
    "long": "101.4634686",
    "lat": "3.0030681",
    "Address": "No.35, Lorong Dato Dagang Soc Sentosa, Klang."
  },
  {
    "Continent": "Malaysia",
    "Country": "Malaysia",
    "State": "MALAYSIA",
    "City": "KUALA LUMPUR",
    "Name": "Ayappan Centre (Batu Caves) (Gombak - Batu Caves, KL)",
    "CenterNumber": "unknown",
    "long": "101.6897555",
    "lat": "3.219588",
    "Address": "No.37, Jalan 53/10, Taman Koperasi Polis 2, Batu Caves, KL, Malaysia"
  },
  {
    "Continent": "Malaysia",
    "Country": "Malaysia",
    "State": "MALAYSIA",
    "City": "KUALA LUMPUR",
    "Name": "Brickfields SKY Centre",
    "CenterNumber": "unknown",
    "long": "101.6932116",
    "lat": "3.1338589",
    "Address": "Kalamandapam (Small Hall), Jalan Scot, Brickfields, Kuala Lumpur, \\r\\nMalaysia."
  },
  {
    "Continent": "Malaysia",
    "Country": "Malaysia",
    "State": "MALAYSIA",
    "City": "KUALA LUMPUR",
    "Name": "SKY Centre - Malaysia",
    "CenterNumber": "unknown",
    "long": "101.7444374",
    "lat": "3.1130174",
    "Address": "No.11A, Jalan Perdana, 6/4, Taman Pandan Perdana, \\r\\nCheras - 55300, Kuala Lumpur, Malaysia."
  },
  {
    "Continent": "Malaysia",
    "Country": "Malaysia",
    "State": "MALAYSIA",
    "City": "KULIM",
    "Name": "Kulim SKY Meditation Sub Centre",
    "CenterNumber": "unknown",
    "long": "0",
    "lat": "0",
    "Address": "Persatuan, Telugu Sangam Kulim, 1st Floor (Opp to mini Stadium) \\r\\nKeladi, Kulim Kedah, Malaysia"
  },
  {
    "Continent": "Malaysia",
    "Country": "Malaysia",
    "State": "MALAYSIA",
    "City": "PERAK",
    "Name": "R.M. Yoga Meditation Centre - IPOH",
    "CenterNumber": "unknown",
    "long": "101.0901991",
    "lat": "4.5921126",
    "Address": "No.68, Jalan Tun Abdul Razak 30100, IPOH, Perak, Malaysia."
  },
  {
    "Continent": "Malaysia",
    "Country": "Malaysia",
    "State": "MALAYSIA",
    "City": "PERAK",
    "Name": "SKY Meditation Centre - Buntong (IPOH)",
    "CenterNumber": "unknown",
    "long": "101.042109",
    "lat": "4.5924766",
    "Address": "Vallalar Anbu nilayam, No:3, Laluan Buntong Jaya 19, \\r\\nRPT Sesa Rishah Cbuntong 5 Buntong, Ipoh 3100, Perak, Malaysia"
  },
  {
    "Continent": "Malaysia",
    "Country": "Malaysia",
    "State": "MALAYSIA",
    "City": "PERAK",
    "Name": "Yogi Vethathiri Maharishi Meditation and Spiritual Association of Malaysia",
    "CenterNumber": "unknown",
    "long": "101.1536009",
    "lat": "4.6658387",
    "Address": "No.11-A Laluan Sungai Choh - 7, Taman Berjaya Tanjong Rambutan, \\r\\nIPOH, Perak, Malaysia."
  },
  {
    "Continent": "Malaysia",
    "Country": "Malaysia",
    "State": "MALAYSIA",
    "City": "SELANGOR",
    "Name": "Aanmiegam SKY Meditation Centre (Puchong, Selangor)",
    "CenterNumber": "unknown",
    "long": "101.640232",
    "lat": "3.059192",
    "Address": "K-02-06, Jalan PPK2, Kinrara Town Centre, \\r\\nTaman Kinrara Sek 3, 47100 Puchong, Selangor, Malaysia"
  },
  {
    "Continent": "Malaysia",
    "Country": "Malaysia",
    "State": "MALAYSIA",
    "City": "SELANGOR",
    "Name": "Anggerik SKY Meditation Centre",
    "CenterNumber": "unknown",
    "long": "101.5684389",
    "lat": "3.4303783",
    "Address": "No.32, Jln. Anggerik 1B, Sek BB4, Bandar Bukit Beruntung, \\r\\n48300 Rawang, Selangor, Malaysia"
  },
  {
    "Continent": "Malaysia",
    "Country": "Malaysia",
    "State": "MALAYSIA",
    "City": "SELANGOR",
    "Name": "Banting SKY Centre",
    "CenterNumber": "unknown",
    "long": "101.5301488",
    "lat": "2.8225436",
    "Address": "No.22 Jalan Emas 26, Bandar Sungai Emas, \\r\\nBanting, Selngor - 42700, Malaysia"
  },
  {
    "Continent": "Malaysia",
    "Country": "Malaysia",
    "State": "MALAYSIA",
    "City": "SELANGOR",
    "Name": "Pertubuhan Pengamal Meditasi Vethathiri Dan Yoga Semenyih, Selangor",
    "CenterNumber": "unknown",
    "long": "101.8605752",
    "lat": "2.9257631",
    "Address": "No.34, Jalan 5/12, Bandar Rinching - 43500 Semenyih, Selangor, \\r\\nMalaysia."
  },
  {
    "Continent": "Malaysia",
    "Country": "Malaysia",
    "State": "MALAYSIA",
    "City": "SELANGOR",
    "Name": "Rawang SKY Meditation Sub Centre",
    "CenterNumber": "unknown",
    "long": "101.5580293",
    "lat": "3.4043167",
    "Address": "C6/1, Jalan Rawang Mutiara 2, Mutiara Bussiness Park, \\r\\nRawang, Selangor, Malaysia"
  },
  {
    "Continent": "Malaysia",
    "Country": "Malaysia",
    "State": "MALAYSIA",
    "City": "SELANGOR",
    "Name": "SKY Living Science Centre Malaysia",
    "CenterNumber": "unknown",
    "long": "101.5724828",
    "lat": "3.4004824",
    "Address": "20, Jalan Daisi 3, Bukit Sentosa, 48300 Rawang, Selangor, Malaysia"
  },
  {
    "Continent": "Malaysia",
    "Country": "Malaysia",
    "State": "MALAYSIA",
    "City": "SELANGOR",
    "Name": "SKY Puchong Centre",
    "CenterNumber": "unknown",
    "long": "101.618802",
    "lat": "3.0327152",
    "Address": "Puchong, Selangor, Malaysia"
  },
  {
    "Continent": "Malaysia",
    "Country": "Malaysia",
    "State": "MALAYSIA",
    "City": "SEREMBAN",
    "Name": "Pertubuhan Penganut Vethathiri Sky Manavalakalai Seremban Malaysia",
    "CenterNumber": "unknown",
    "long": "101.9201151",
    "lat": "2.7152026",
    "Address": "C-8-3, Jalan Dataran Sentral 3, Dataran Sentral, Tingkat, \\r\\n70200 Seremaban, Negeri Sembilan Darul Khusus, Malaysia"
  },
  {
    "Continent": "Nepal",
    "Country": "Nepal",
    "State": "NEPAL",
    "City": "KATHMANDU",
    "Name": "SKY Centre - Nepal",
    "CenterNumber": "unknown",
    "long": "85.2774207",
    "lat": "27.6630019",
    "Address": "Kirtipur, Kathmandu, Nepal"
  },
  {
    "Continent": "Netherlands",
    "Country": "Netherlands",
    "State": "NETHERLANDS",
    "City": "AMSTERDAM",
    "Name": "Netherlands SKY Centre",
    "CenterNumber": "unknown",
    "long": "5.291266",
    "lat": "52.132633",
    "Address": "Netherlands"
  },
  {
    "Continent": "Norway",
    "Country": "Norway",
    "State": "NORWAY",
    "City": "OSLO",
    "Name": "SKY OSLO",
    "CenterNumber": "unknown",
    "long": "10.8673567",
    "lat": "59.9580697",
    "Address": "Norges Hindu Kultur Senter, 1st floor, (Oslo Sivasubramaniyar Temple Building), \\r\\nMartinsstrandlis vei 10, 0956 OSLO, Norway"
  },
  {
    "Continent": "Norway",
    "Country": "Norway",
    "State": "NORWAY",
    "City": "STAVANGER",
    "Name": "SKY Stavanger",
    "CenterNumber": "unknown",
    "long": "8.468946",
    "lat": "60.472024",
    "Address": "Springarstien 61, 4021 Stavanger, Norway."
  },
  {
    "Continent": "Oman",
    "Country": "Oman",
    "State": "OMAN",
    "City": "MUSCAT",
    "Name": "SKY Muscat",
    "CenterNumber": "unknown",
    "long": "58.3828717",
    "lat": "23.5880307",
    "Address": "Muscat, Sulatanate of Oman"
  },
  {
    "Continent": "Oman",
    "Country": "Oman",
    "State": "OMAN",
    "City": "MUSCAT",
    "Name": "SKY Sohar",
    "CenterNumber": "unknown",
    "long": "56.7133258",
    "lat": "24.3500672",
    "Address": "Sohar, Sultanate of Oman"
  },
  {
    "Continent": "Qatar",
    "Country": "Qatar",
    "State": "QATAR",
    "City": "AL KHOR",
    "Name": "Khor SKY Meditation Centre",
    "CenterNumber": "unknown",
    "long": "51.5329197",
    "lat": "25.7154451",
    "Address": "Al Khor Community, Qatar"
  },
  {
    "Continent": "Qatar",
    "Country": "Qatar",
    "State": "QATAR",
    "City": "DOHA",
    "Name": "Qatar SKY Centre",
    "CenterNumber": "unknown",
    "long": "51.5678608",
    "lat": "25.2324001",
    "Address": "Indian Club, Al Fadaill St, Doha Qatar"
  },
  {
    "Continent": "Singapore",
    "Country": "Singapore",
    "State": "SINGAPORE",
    "City": "SINGAPORE",
    "Name": "Arasa Kesari Sivan Temple",
    "CenterNumber": "unknown",
    "long": "103.75483",
    "lat": "1.40609",
    "Address": "No.25, Sungai Kadut Ave, Singapore - 729 679. Nearest MRT: Kranji"
  },
  {
    "Continent": "Singapore",
    "Country": "Singapore",
    "State": "SINGAPORE",
    "City": "SINGAPORE",
    "Name": "Arulmigu Velmurugan Gnana Muneeswarar Temple",
    "CenterNumber": "unknown",
    "long": "0",
    "lat": "0",
    "Address": "No.50, Rivervale Crescent (Senkang), \\r\\nSingapore - 545 029. Nearest LRT: Bakau"
  },
  {
    "Continent": "Singapore",
    "Country": "Singapore",
    "State": "SINGAPORE",
    "City": "SINGAPORE",
    "Name": "Bukit Batok Civil Service Club",
    "CenterNumber": "unknown",
    "long": "103.8200157",
    "lat": "1.352083",
    "Address": "No.91, Bukit Batok West Ave 2, Singapore."
  },
  {
    "Continent": "Singapore",
    "Country": "Singapore",
    "State": "SINGAPORE",
    "City": "SINGAPORE",
    "Name": "Derma Muneeswaran Temple",
    "CenterNumber": "unknown",
    "long": "0",
    "lat": "0",
    "Address": "Serangoon North Ave 1, Singapore."
  },
  {
    "Continent": "Singapore",
    "Country": "Singapore",
    "State": "SINGAPORE",
    "City": "SINGAPORE",
    "Name": "Hwi Yoh Community Club",
    "CenterNumber": "unknown",
    "long": "103.8201056",
    "lat": "1.352083",
    "Address": "Serangoon North Ave 3, Singapore"
  },
  {
    "Continent": "Singapore",
    "Country": "Singapore",
    "State": "SINGAPORE",
    "City": "SINGAPORE",
    "Name": "Jurong Green Community Centre",
    "CenterNumber": "unknown",
    "long": "103.737082",
    "lat": "1.339876",
    "Address": "No.90, Boon Lay, Singapore - 649 520"
  },
  {
    "Continent": "Singapore",
    "Country": "Singapore",
    "State": "SINGAPORE",
    "City": "SINGAPORE",
    "Name": "Simplified Kundalini Yoga Society",
    "CenterNumber": "unknown",
    "long": "103.854459",
    "lat": "1.3186014",
    "Address": "No.101, Balestier Road, Singapore - 329 678."
  },
  {
    "Continent": "Singapore",
    "Country": "Singapore",
    "State": "SINGAPORE",
    "City": "SINGAPORE",
    "Name": "Singapore Tamil Teachers",
    "CenterNumber": "unknown",
    "long": "0",
    "lat": "0",
    "Address": "Singapore."
  },
  {
    "Continent": "Singapore",
    "Country": "Singapore",
    "State": "SINGAPORE",
    "City": "SINGAPORE",
    "Name": "SKY Meditation Centre - Singapore (Amma Centre)",
    "CenterNumber": "unknown",
    "long": "103.8201056",
    "lat": "1.352083",
    "Address": "3 Hindoo Road, Opp. to Broadway Hotel, Serangoon Road,\\r\\n Singapore - 209 106."
  },
  {
    "Continent": "Singapore",
    "Country": "Singapore",
    "State": "SINGAPORE",
    "City": "SINGAPORE",
    "Name": "Sri Muneeswaran Temple",
    "CenterNumber": "unknown",
    "long": "103.7983157",
    "lat": "1.3023957",
    "Address": "No.3, Common Wealth Drive, Singapore - 149 594. \\r\\nNearest MRT: Common Wealth -"
  },
  {
    "Continent": "Singapore",
    "Country": "Singapore",
    "State": "SINGAPORE",
    "City": "SINGAPORE",
    "Name": "Sri Ruthra Kaliamman Temple",
    "CenterNumber": "unknown",
    "long": "0",
    "lat": "0",
    "Address": "No.100 Depot Road, Singapore."
  },
  {
    "Continent": "Singapore",
    "Country": "Singapore",
    "State": "SINGAPORE",
    "City": "SINGAPORE",
    "Name": "Supreme Kundalini Yoga Society",
    "CenterNumber": "unknown",
    "long": "103.8199259",
    "lat": "1.352083",
    "Address": "No.2, Kampong Kapor Road,(Singai Tamil Sangam) Singapore - 208 674."
  },
  {
    "Continent": "Singapore",
    "Country": "Singapore",
    "State": "SINGAPORE",
    "City": "SINGAPORE",
    "Name": "Vethathiri Maharishi Simplified Kundalini Yoga",
    "CenterNumber": "unknown",
    "long": "103.8678744",
    "lat": "1.3301048",
    "Address": "53A, Woodsville Close, Potong Pasir, Singapore - 357 788."
  },
  {
    "Continent": "Srilanka",
    "Country": "Srilanka",
    "State": "SRILANKA",
    "City": "BATTICALOA",
    "Name": "Batticoloa SKY Sub Centre",
    "CenterNumber": "unknown",
    "long": "81.7122953",
    "lat": "7.7048747",
    "Address": "Pillayar Kovil Road, Kalladi, Batticoloa."
  },
  {
    "Continent": "Srilanka",
    "Country": "Srilanka",
    "State": "SRILANKA",
    "City": "COLOMBO",
    "Name": "36th Lane SKY Sub Centre",
    "CenterNumber": "unknown",
    "long": "79.8604924",
    "lat": "6.8690777",
    "Address": "36th Lane, Srilanka"
  },
  {
    "Continent": "Srilanka",
    "Country": "Srilanka",
    "State": "SRILANKA",
    "City": "COLOMBO",
    "Name": "Modera SKY Sub Centre",
    "CenterNumber": "unknown",
    "long": "79.8622253",
    "lat": "6.9623593",
    "Address": "74, Delasalle Street, Modera, Colombo - 15."
  },
  {
    "Continent": "Srilanka",
    "Country": "Srilanka",
    "State": "SRILANKA",
    "City": "COLOMBO",
    "Name": "New Chetty Street SKY Sub Centre",
    "CenterNumber": "unknown",
    "long": "79.8596967",
    "lat": "6.9456034",
    "Address": "93, New Chetty Street, Kotahena, Colombo - 13."
  },
  {
    "Continent": "Srilanka",
    "Country": "Srilanka",
    "State": "SRILANKA",
    "City": "COLOMBO",
    "Name": "Sri Lanka SKY Trust - Wellawatte, Colombo",
    "CenterNumber": "unknown",
    "long": "79.8611942",
    "lat": "6.8656825",
    "Address": "No.53/1A, Ramakrishna Road, Colombo - 6."
  },
  {
    "Continent": "Srilanka",
    "Country": "Srilanka",
    "State": "SRILANKA",
    "City": "COLOMBO",
    "Name": "Viveka SKY Sub Centre",
    "CenterNumber": "unknown",
    "long": "79.8592257",
    "lat": "6.9424706",
    "Address": "Vivekananda Hall, Colombo - 13. Kotahena, Colombo - 13."
  },
  {
    "Continent": "Srilanka",
    "Country": "Srilanka",
    "State": "SRILANKA",
    "City": "COLOMBO",
    "Name": "Wasala Road SKY Sub Centre",
    "CenterNumber": "unknown",
    "long": "79.8615798",
    "lat": "6.9508053",
    "Address": "33/8, Janatha MW Place, Kotahena, Colombo - 13."
  },
  {
    "Continent": "Srilanka",
    "Country": "Srilanka",
    "State": "SRILANKA",
    "City": "HATTON",
    "Name": "Hatton SKY Meditation Centre",
    "CenterNumber": "unknown",
    "long": "-87.415301",
    "lat": "34.5628707",
    "Address": "4/21, 1/1, Pansala Road, Hatton."
  },
  {
    "Continent": "Srilanka",
    "Country": "Srilanka",
    "State": "SRILANKA",
    "City": "JAFFNA",
    "Name": "Temple Road SKY Sub Centre",
    "CenterNumber": "unknown",
    "long": "80.02572875",
    "lat": "9.6614981",
    "Address": "14/4, 1st Lane, Temple Road, Jaffna."
  },
  {
    "Continent": "Srilanka",
    "Country": "Srilanka",
    "State": "SRILANKA",
    "City": "JAFFNA",
    "Name": "Thirunelvy SKY Sub Centre",
    "CenterNumber": "unknown",
    "long": "80.02563762",
    "lat": "9.6614981",
    "Address": "12, Siva School Lane, Thirunelvy Road, Jaffna."
  },
  {
    "Continent": "Srilanka",
    "Country": "Srilanka",
    "State": "SRILANKA",
    "City": "JAFFNA",
    "Name": "Vannarpannai SKY Meditation Centre",
    "CenterNumber": "unknown",
    "long": "80.0255465",
    "lat": "9.6614981",
    "Address": "3/8, Kesaavil 1st Lane, Vannaarpannai, Jaffna."
  },
  {
    "Continent": "Srilanka",
    "Country": "Srilanka",
    "State": "SRILANKA",
    "City": "KODIKAMAM",
    "Name": "Vellampokkatti SKY Sub Centre",
    "CenterNumber": "unknown",
    "long": "80.2276774",
    "lat": "9.6759447",
    "Address": "Vellampokkaddy, Kodikamam."
  },
  {
    "Continent": "Srilanka",
    "Country": "Srilanka",
    "State": "SRILANKA",
    "City": "NAWALAPITIYA",
    "Name": "Nawalapitiya SKY Sub Centre",
    "CenterNumber": "unknown",
    "long": "80.5160608",
    "lat": "7.0447008",
    "Address": "8V, Theater Road, Nawalapitiya."
  },
  {
    "Continent": "Srilanka",
    "Country": "Srilanka",
    "State": "SRILANKA",
    "City": "VAVUNIYA",
    "Name": "Vavuniya SKY Meditation Centre",
    "CenterNumber": "unknown",
    "long": "80.3420488",
    "lat": "8.7530552",
    "Address": "Kaliyamman Thevasthana Thiyana Mandapam, Mannar Road, Vavuniya."
  },
  {
    "Continent": "Srilanka",
    "Country": "Srilanka",
    "State": "SRILANKA",
    "City": "WATTALA",
    "Name": "Wattala SKY Sub Centre",
    "CenterNumber": "unknown",
    "long": "79.8816366",
    "lat": "6.9830295",
    "Address": "96B, Hekkitha Road, Wattala."
  },
  {
    "Continent": "SWITZERLAND",
    "Country": "SWITZERLAND",
    "State": "ZURICH",
    "City": "BAHNHALDENSTRASSE",
    "Name": "SKY Zurich",
    "CenterNumber": "unknown",
    "long": "8.5466331",
    "lat": "47.418987",
    "Address": "K.R.Center Bahnhaldenstrasse 5,8052 Zrich"
  },
  {
    "Continent": "Thailand",
    "Country": "Thailand",
    "State": "THAILAND",
    "City": "BANGKOK",
    "Name": "Bangkok SKY Meditation Centre",
    "CenterNumber": "unknown",
    "long": "100.5687356",
    "lat": "13.7322264",
    "Address": "Room No.456/ 20th Floor, Ideo Condo, Soi- 115, Sukhumvit Road, \\r\\nNear Pho Chao BTS Station, Bangkok, Thailand"
  },
  {
    "Continent": "UK",
    "Country": "UK",
    "State": "UK",
    "City": "LONDON - HARROW",
    "Name": "UK SKY Meditation Centre Harrow",
    "CenterNumber": "unknown",
    "long": "-0.3512096",
    "lat": "51.5865673",
    "Address": "74 Pinner View Harrow HA1 4QF United Kingdom"
  },
  {
    "Continent": "UK",
    "Country": "UK",
    "State": "UK",
    "City": "LONDON - ILFORD",
    "Name": "EAST LONDON - Ilford SKY Centre",
    "CenterNumber": "unknown",
    "long": "0.0805194",
    "lat": "51.5633396",
    "Address": "Vinayager Temple, 299-303 Ley Street, Ilford IG1 4BN."
  },
  {
    "Continent": "UK",
    "Country": "UK",
    "State": "UK",
    "City": "LONDON - MIDDLESEX",
    "Name": "SKY Trust UK",
    "CenterNumber": "unknown",
    "long": "-0.331853",
    "lat": "51.5823645",
    "Address": "Victoria Hall, Sheepcote Road, Harrow, Middlesex HA1 2JE, \\r\\nUnited Kingdom."
  },
  {
    "Continent": "USA",
    "Country": "USA",
    "State": "CALIFORNIA",
    "City": "BERKELEY",
    "Name": "SKY Meditation Centre - Bay Area",
    "CenterNumber": "unknown",
    "long": "-122.273042",
    "lat": "37.8715226",
    "Address": "Berkeley CA"
  },
  {
    "Continent": "USA",
    "Country": "USA",
    "State": "CALIFORNIA",
    "City": "CUPERTINO",
    "Name": "Cupertino SKY Sub Center (SKYBayArea)",
    "CenterNumber": "unknown",
    "long": "0",
    "lat": "0",
    "Address": "Cupertino CA 95014"
  },
  {
    "Continent": "USA",
    "Country": "USA",
    "State": "CALIFORNIA",
    "City": "FREMONT",
    "Name": "Fremont Meditation Centre",
    "CenterNumber": "unknown",
    "long": "-121.9524857",
    "lat": "37.5197328",
    "Address": "Fremont Hindu Temple - Saraswathi, 3676 Delaware Dr, \\r\\nFremont, CA, USA 94538."
  },
  {
    "Continent": "USA",
    "Country": "USA",
    "State": "CALIFORNIA",
    "City": "LOS ANGELES",
    "Name": "LOS ANGELS SKY Meditation Centre (SOCAL SKY IRVINE)",
    "CenterNumber": "unknown",
    "long": "0",
    "lat": "0",
    "Address": "Mandir, 1732 Reynolds Ave Irvine, CA 92614."
  },
  {
    "Continent": "USA",
    "Country": "USA",
    "State": "CALIFORNIA",
    "City": "MILPITAS",
    "Name": "Milpitas SKY Sub Center (SKYBayArea)",
    "CenterNumber": "unknown",
    "long": "-121.9182437",
    "lat": "37.4463348",
    "Address": "1221 California Circle Milpitas CA 95035"
  },
  {
    "Continent": "USA",
    "Country": "USA",
    "State": "CALIFORNIA",
    "City": "PLEASANTON",
    "Name": "Pleasanton SKY Sub Center (SKYBayArea)",
    "CenterNumber": "unknown",
    "long": "0",
    "lat": "0",
    "Address": "Pleasanton CA 94566"
  },
  {
    "Continent": "USA",
    "Country": "USA",
    "State": "CALIFORNIA",
    "City": "SAN RAMON",
    "Name": "San Ramon Meditation Centre",
    "CenterNumber": "unknown",
    "long": "-121.9822796",
    "lat": "37.7864377",
    "Address": "Sri Datta Sai Mandir, 1901 San Ramon Valley Blvd, San Ramon,\\r\\n CA-94583 USA."
  },
  {
    "Continent": "USA",
    "Country": "USA",
    "State": "CALIFORNIA",
    "City": "SUNNYVALE",
    "Name": "Sunnyvale SKY Sub Center (SKYBayArea)",
    "CenterNumber": "unknown",
    "long": "-122.0781663",
    "lat": "37.4062237",
    "Address": "SunnyVale CA 94043"
  },
  {
    "Continent": "USA",
    "Country": "USA",
    "State": "COLORADO",
    "City": "CENTENNIAL",
    "Name": "Denver SKY Meditation Centre - Colorado (USA - West)",
    "CenterNumber": "unknown",
    "long": "-104.807304",
    "lat": "39.607436",
    "Address": "5979 S Helena Ct, Centennial, CO 80016."
  },
  {
    "Continent": "USA",
    "Country": "USA",
    "State": "COLORADO",
    "City": "SACRAMENTO",
    "Name": "Sacramento Meditation Centre",
    "CenterNumber": "unknown",
    "long": "0",
    "lat": "0",
    "Address": ""
  },
  {
    "Continent": "USA",
    "Country": "USA",
    "State": "FLORIDA",
    "City": "MIRAMAR",
    "Name": "South Florida SKY Meditation Centre",
    "CenterNumber": "unknown",
    "long": "-80.3573171",
    "lat": "25.9594714",
    "Address": "15671 SW 53rd St Miramar FL 33027"
  },
  {
    "Continent": "USA",
    "Country": "USA",
    "State": "GEORGIA",
    "City": "CUMMING",
    "Name": "Atlanta SKY Meditation Center",
    "CenterNumber": "unknown",
    "long": "-84.1820245",
    "lat": "34.1139903",
    "Address": "2215 Manor View Cumming, GA, 30041"
  },
  {
    "Continent": "USA",
    "Country": "USA",
    "State": "ILLINOIS",
    "City": "VERNON HILLS",
    "Name": "Chicago SKY Meditation Center",
    "CenterNumber": "unknown",
    "long": "-87.9643767",
    "lat": "42.2352329",
    "Address": "502 Arlington Ct, Vernon Hills, IL, 60061"
  },
  {
    "Continent": "USA",
    "Country": "USA",
    "State": "MARYLAND",
    "City": "ELLICOT CITY",
    "Name": "Ellicott City SKY Center",
    "CenterNumber": "unknown",
    "long": "-76.7983067",
    "lat": "39.2673283",
    "Address": "Ellicot City, MD, 2141"
  },
  {
    "Continent": "USA",
    "Country": "USA",
    "State": "MASSACHUSETTS",
    "City": "NORWOOD",
    "Name": "Norwood SKY Center",
    "CenterNumber": "unknown",
    "long": "-71.2042619",
    "lat": "42.1772198",
    "Address": "Noorwood, MA, 2062"
  },
  {
    "Continent": "USA",
    "Country": "USA",
    "State": "MICHIGAN",
    "City": "DETROIT",
    "Name": "Detroit Meditation Sub Centre",
    "CenterNumber": "unknown",
    "long": "-83.2827093",
    "lat": "42.3446054",
    "Address": "Detroit MI 48127"
  },
  {
    "Continent": "USA",
    "Country": "USA",
    "State": "MISSOURI",
    "City": "BALLWIN",
    "Name": "SKY Meditation Center, St.Louis",
    "CenterNumber": "unknown",
    "long": "-90.5352356",
    "lat": "38.557323",
    "Address": "Ballwin, MO, 63021"
  },
  {
    "Continent": "USA",
    "Country": "USA",
    "State": "NEW JERSEY",
    "City": "CRANBURY",
    "Name": "Cranbury SKY Sub Center (SKY NewJersey)",
    "CenterNumber": "unknown",
    "long": "0",
    "lat": "0",
    "Address": "Cranbury NJ 8512"
  },
  {
    "Continent": "USA",
    "Country": "USA",
    "State": "NEW JERSEY",
    "City": "EDISON",
    "Name": "North Edison SKY Sub Center (SKY NewJersey)",
    "CenterNumber": "unknown",
    "long": "0",
    "lat": "0",
    "Address": "Edison NJ 8820"
  },
  {
    "Continent": "USA",
    "Country": "USA",
    "State": "NEW JERSEY",
    "City": "EDISON",
    "Name": "South Edison SKY Sub Center (SKY New Jersey)",
    "CenterNumber": "unknown",
    "long": "0",
    "lat": "0",
    "Address": "Edison NJ 8837"
  },
  {
    "Continent": "USA",
    "Country": "USA",
    "State": "NEW JERSEY",
    "City": "FRANKLIN PARK",
    "Name": "Franklin Park SKY Center (SKY NewJersey)",
    "CenterNumber": "unknown",
    "long": "-74.532129",
    "lat": "40.441296",
    "Address": "Y.B.Chois Tae Kwon Do, 3001 Highway 27, Franklin Park, NJ 08823."
  },
  {
    "Continent": "USA",
    "Country": "USA",
    "State": "NEW JERSEY",
    "City": "FREEHOLD",
    "Name": "Freehold SKY Sub Center (SKY NewJersey)",
    "CenterNumber": "unknown",
    "long": "0",
    "lat": "0",
    "Address": "Freehold NJ 7728"
  },
  {
    "Continent": "USA",
    "Country": "USA",
    "State": "NEW JERSEY",
    "City": "JERSEY CITY",
    "Name": "Jersey City Meditation Center",
    "CenterNumber": "unknown",
    "long": "-74.063598",
    "lat": "40.7368501",
    "Address": "18 Skillman avenue, Jersey City, NJ, 07306"
  },
  {
    "Continent": "USA",
    "Country": "USA",
    "State": "NEW JERSEY",
    "City": "MANMOUTH",
    "Name": "SKY Meditation Center - New Jersey",
    "CenterNumber": "unknown",
    "long": "-74.5179704",
    "lat": "40.4047777",
    "Address": "10 Oak tree Road, Monmouth Junction, Newjersy - 08852."
  },
  {
    "Continent": "USA",
    "Country": "USA",
    "State": "NEW YORK",
    "City": "NEW YORK",
    "Name": "New York SKY Center (SKY New York)",
    "CenterNumber": "unknown",
    "long": "-73.9932872",
    "lat": "40.755322",
    "Address": "New York NY 10018"
  },
  {
    "Continent": "USA",
    "Country": "USA",
    "State": "NORTH CAROLINA",
    "City": "MORRISVILLE",
    "Name": "North Carolina SKY Center",
    "CenterNumber": "unknown",
    "long": "-77.6223268",
    "lat": "37.6483438",
    "Address": "406 Trolley Car Way Morrisville NC 27560"
  },
  {
    "Continent": "USA",
    "Country": "USA",
    "State": "TEXAS",
    "City": "BELLAIRE",
    "Name": "Houston SKY Center",
    "CenterNumber": "unknown",
    "long": "-95.453638",
    "lat": "29.691585",
    "Address": "Bellaire TX"
  },
  {
    "Continent": "USA",
    "Country": "USA",
    "State": "TEXAS",
    "City": "McKINNEY",
    "Name": "McKinney SKY Meditation Center",
    "CenterNumber": "unknown",
    "long": "0",
    "lat": "0",
    "Address": "10921 Calvert Pl McKinney TX 75071"
  },
  {
    "Continent": "USA",
    "Country": "USA",
    "State": "TEXAS",
    "City": "PLANO",
    "Name": "Plano SKY Meditation Centre",
    "CenterNumber": "unknown",
    "long": "-96.7598756",
    "lat": "33.0921785",
    "Address": "8308 Sand Ridge Dr Plano TX 75025"
  },
  {
    "Continent": "USA",
    "Country": "USA",
    "State": "VIRGINIA",
    "City": "FAIRFAX",
    "Name": "Fairfax SKY Center",
    "CenterNumber": "unknown",
    "long": "0",
    "lat": "0",
    "Address": "Fairfax VA 22030"
  },
  {
    "Continent": "USA",
    "Country": "USA",
    "State": "VIRGINIA",
    "City": "RICHMOND",
    "Name": "Richmond SKY Center",
    "CenterNumber": "unknown",
    "long": "0",
    "lat": "0",
    "Address": "Richmond VA 23173"
  },
  {
    "Continent": "USA",
    "Country": "USA",
    "State": "WASHINGTON",
    "City": "BELLEVUE",
    "Name": "Bellevue SKY Center (SKYSeattle)",
    "CenterNumber": "unknown",
    "long": "-122.1119821",
    "lat": "47.6133715",
    "Address": "213 174th Pl NE Bellevue WA 98008"
  },
  {
    "Continent": "USA",
    "Country": "USA",
    "State": "WASHINGTON",
    "City": "SAMMAMISH",
    "Name": "Seattle SKY Society - Sammamish Centre",
    "CenterNumber": "unknown",
    "long": "-122.0366425",
    "lat": "47.6145674",
    "Address": "555 227th CT NE, Sammamish, 98074."
  }
]